ML\xd3\x93\t\x82\x8
\xb14219.1646,N,08313.9639,W,0.00,173.75,050619,,,A*70
$GPGGA,225148.000,4219.1646,N,08313.9639,W,1,05,3.0,191.9,M,-34.0,M,,0000*6D
$GPGSA,A,3,02,05,12,06,09,,,,,,,,4.2,3.0,2.9*37
$GPRMC,225148.000,A,4219.1646,N,08313.9639,W,0.00,173.75,050619,,,A*7F
$GPGGA,225149.000,4219.1646,N,08313.9639,W,1,05,3.0,191.9,M,-34.0,M,,0000*6C
$GPGSA,A,3,02,05,12,06,09,,,,,,,,4.2,3.0,2.9*37
$GPRMC,225149.000,A,4219.1646,N,08313.9639,W,0.00,173.75,050619,,,A*7E
$GPGGA,225150.000,4219.1646,N,08313.9639,W,1,05,3.0,191.9,M,-34.0,M,,0000*64
$GPGSA,A,3,02,05,12,06,09,,,,,,,,4.2,3.0,2.9*37
$GPRMC,225150.000,A,4219.1646,N,08313.9639,W,0.00,173.75,050619,,,A*76
$GPGGA,225151.000,4219.1646,N,08313.9639,W,1,05,3.0,191.9,M,-34.0,M,,0000*65
$GPGSA,A,3,02,05,12,06,09,,,,,,,,4.2,3.0,2.9*37
$GPRMC,225151.000,A,4219.1646,N,08313.9639,W,0.00,173.75,050619,,,A*77
$GPGGA,225152.000,4219.1646,N,08313.9639,W,1,05,3.0,191.8,M,-34.0,M,,0000*67
$GPGSA,A,3,02,05,12,06,09,,,,,,,,4.2,3.0,2.9*37
$GPGSV,3,1,12,02,73,007,43,05,58,201,41,12,44,237,45,06,38,067,40*7C
$GPGSV,3,2,12,09,21,060,37,04,00,000,33,25,02,240,26,03,53,093,*7F
$GPGSV,3,3,12,28,45,247,,08,27,099,,19,20,044,,15,08,319,*70
$GPRMC,225152.000,A,4219.1646,N,08313.9639,W,0.00,173.75,050619,,,A*74
$GPGGA,225153.000,4219.1646,N,08313.9639,W,1,05,3.0,191.8,M,-34.0,M,,0000*66
$GPGSA,A,3,02,05,12,06,09,,,,,,,,4.2,3.0,2.9*37
$GPRMC,225153.000,A,4219.1646,N,08313.9639,W,0.00,173.75,050619,,,A*75
$GPGGA,225154.000,4219.1646,N,08313.9639,W,1,05,3.0,191.8,M,-34.0,M,,0000*61
$GPGSA,A,3,02,05,12,06,09,,,,,,,,4.2,3.0,2.9*37
$GPRMC,225154.000,A,4219.1646,N,08313.9639,W,0.00,173.75,050619,,,A*72
$GPGGA,225155.000,4219.1646,N,08313.9639,W,1,05,3.0,191.8,M,-34.0,M,,0000*60
$GPGSA,A,3,02,05,12,06,09,,,,,,,,4.2,3.0,2.9*37
$GPRMC,225155.000,A,4219.1646,N,08313.9639,W,0.00,173.75,050619,,,A*73
$GPGGA,225156.000,4219.1646,N,08313.9639,W,1,05,3.0,191.8,M,-34.0,M,,0000*63
$GPGSA,A,3,02,05,12,06,09,,,,,,,,4.2,3.0,2.9*37
$GPRMC,225156.000,A,4219.1646,N,08313.9639,W,0.00,173.75,050619,,,A*70
$GPGGA,225157.000,4219.1646,N,08313.9639,W,1,05,3.0,191.8,M,-34.0,M,,0000*62
$GPGSA,A,3,02,05,12,06,09,,,,,,,,4.2,3.0,2.9*37
$GPGSV,3,1,12,02,73,007,43,05,58,201,40,12,44,237,45,06,38,067,40*7D
$GPGSV,3,2,12,09,21,060,36,04,00,000,33,25,02,240,26,03,53,093,*7E
$GPGSV,3,3,12,28,45,247,,08,27,099,,19,20,044,,15,08,319,*70
$GPRMC,225157.000,A,4219.1646,N,08313.9639,W,0.00,173.75,050619,,,A*71
$GPGGA,225158.000,4219.1646,N,08313.9639,W,1,05,3.0,191.8,M,-34.0,M,,0000*6D
$GPGSA,A,3,02,05,12,06,09,,,,,,,,4.2,3.0,2.9*37
$GPRMC,225158.000,A,4219.1646,N,08313.9639,W,0.00,173.75,050619,,,A*7E
$GPGGA,225159.000,4219.1646,N,08313.9639,W,1,05,3.0,191.8,M,-34.0,M,,0000*6C
$GPGSA,A,3,02,05,12,06,09,,,,,,,,4.2,3.0,2.9*37
$GPRMC,225159.000,A,4219.1646,N,08313.9639,W,0.00,173.75,050619,,,A*7F
$GPGGA,225200.000,4219.1646,N,08313.9639,W,1,05,3.0,191.8,M,-34.0,M,,0000*63
$GPGSA,A,3,02,05,12,06,09,,,,,,,,4.2,3.0,2.9*37
$GPRMC,225200.000,A,4219.1646,N,08313.9639,W,0.00,173.75,050619,,,A*70
$GPGGA,225201.000,4219.1646,N,08313.9639,W,1,05,3.0,191.8,M,-34.0,M,,0000*62
$GPGSA,A,3,02,05,12,06,09,,,,,,,,4.2,3.0,2.9*37
$GPRMC,225201.000,A,4219.1646,N,08313.9639,W,0.00,173.75,050619,,,A*71
$GPGGA,225202.000,4219.1646,N,08313.9639,W,1,05,3.0,191.8,M,-34.0,M,,0000*61
$GPGSA,A,3,02,05,12,06,09,,,,,,,,4.2,3.0,2.9*37
$GPGSV,3,1,12,02,73,007,43,05,58,201,39,12,44,237,44,06,38,067,40*72
$GPGSV,3,2,12,09,21,060,23,04,00,000,34,19,20,044,36,25,02,240,22*79
$GPGSV,3,3,12,03,53,093,,28,45,247,,08,27,099,,15,08,319,*75
$GPRMC,225202.000,A,4219.1646,N,08313.9639,W,0.00,173.75,050619,,,A*72
$GPGGA,225203.000,4219.1646,N,08313.9639,W,1,05,3.0,191.8,M,-34.0,M,,0000*60
$GPGSA,A,3,02,05,12,06,09,,,,,,,,4.2,3.0,2.9*37
$GPRMC,225203.000,A,4219.1646,N,08313.9639,W,0.00,173.75,050619,,,A*73
$GPGGA,225204.000,4219.1646,N,08313.9639,W,1,05,3.0,191.8,M,-34.0,M,,0000*67
$GPGSA,A,3,02,05,12,06,09,,,,,,,,4.2,3.0,2.9*37
$GPRMC,225204.000,A,4219.1646,N,08313.9639,W,0.00,173.75,050619,,,A*74
$GPGGA,225205.000,4219.1646,N,08313.9639,W,1,05,3.0,191.8,M,-34.0,M,,0000*66
$GPGSA,A,3,02,05,12,06,09,,,,,,,,4.2,3.0,2.9*37
$GPRMC,225205.000,A,4219.1646,N,08313.9639,W,0.00,173.75,050619,,,A*75
$GPGGA,225206.000,4219.1646,N,08313.9639,W,1,05,3.0,191.8,M,-34.0,M,,0000*65
$GPGSA,A,3,02,05,12,06,09,,,,,,,,4.2,3.0,2.9*37
$GPRMC,225206.000,A,4219.1646,N,08313.9639,W,0.00,173.75,050619,,,A*76
$GPGGA,225207.000,4219.1646,N,08313.9639,W,1,05,3.0,191.7,M,-34.0,M,,0000*6B
$GPGSA,A,3,02,05,12,06,09,,,,,,,,4.2,3.0,2.9*37
$GPGSV,3,1,12,02,73,007,43,05,58,201,40,12,44,237,43,06,38,067,40*7B
$GPGSV,3,2,12,09,21,060,34,04,00,000,33,19,20,044,30,25,02,240,21*7D
$GPGSV,3,3,12,03,53,093,,28,45,247,,08,27,099,,15,08,319,*75
$GPRMC,225207.000,A,4219.1646,N,08313.9639,W,0.00,173.75,050619,,,A*77
$GPGGA,225208.000,4219.1646,N,08313.9639,W,1,05,3.0,191.7,M,-34.0,M,,0000*64
$GPGSA,A,3,02,05,12,06,09,,,,,,,,4.2,3.0,2.9*37
$GPRMC,225208.000,A,4219.1646,N,08313.9639,W,0.00,173.75,050619,,,A*78
$GPGGA,225209.000,4219.1646,N,08313.9639,W,1,05,3.0,191.7,M,-34.0,M,,0000*65
$GPGSA,A,3,02,05,12,06,09,,,,,,,,4.2,3.0,2.9*37
$GPRMC,225209.000,A,4219.1646,N,08313.9639,W,0.00,173.75,050619,,,A*79
$GPGGA,225210.000,4219.1646,N,08313.9639,W,1,05,3.0,191.7,M,-34.0,M,,0000*6D
$GPGSA,A,3,02,05,12,06,09,,,,,,,,4.2,3.0,2.9*37
$GPRMC,225210.000,A,4219.1646,N,08313.9639,W,0.00,173.75,050619,,,A*71
$GPGGA,225211.000,4219.1646,N,08313.9639,W,1,05,3.0,191.7,M,-34.0,M,,0000*6C
$GPGSA,A,3,02,05,12,06,09,,,,,,,,4.2,3.0,2.9*37
$GPRMC,225211.000,A,4219.1646,N,08313.9639,W,0.00,173.75,050619,,,A*70
$GPGGA,225212.000,4219.1646,N,08313.9639,W,1,05,3.0,191.7,M,-34.0,M,,0000*6F
$GPGSA,A,3,02,05,12,06,09,,,,,,,,4.2,3.0,2.9*37
$GPGSV,3,1,12,02,73,007,43,05,58,201,41,12,44,237,42,06,38,067,40*7B
$GPGSV,3,2,12,09,21,060,34,04,00,000,33,19,20,044,30,25,02,240,13*7C
$GPGSV,3,3,12,03,53,093,,28,45,247,,08,27,099,,15,08,319,*75
$GPRMC,225212.000,A,4219.1646,N,08313.9639,W,0.00,173.75,050619,,,A*73
$GPGGA,225213.000,4219.1646,N,08313.9639,W,1,05,3.0,191.7,M,-34.0,M,,0000*6E
$GPGSA,A,3,02,05,12,06,09,,,,,,,,4.2,3.0,2.9*37
$GPRMC,225213.000,A,4219.1646,N,08313.9639,W,0.00,173.75,050619,,,A*72
$GPGGA,225214.000,4219.1646,N,08313.9639,W,1,05,3.0,191.7,M,-34.0,M,,0000*69
$GPGSA,A,3,02,05,12,06,09,,,,,,,,4.2,3.0,2.9*37
$GPRMC,225214.000,A,4219.1646,N,08313.9639,W,0.00,173.75,050619,,,A*75
$GPGGA,225215.000,4219.1646,N,08313.9639,W,1,05,3.0,191.7,M,-34.0,M,,0000*68
$GPGSA,A,3,02,05,12,06,09,,,,,,,,4.2,3.0,2.9*37
$GPRMC,225215.000,A,4219.1646,N,08313.9639,W,0.00,173.75,050619,,,A*74
$GPGGA,225216.000,4219.1647,N,08313.9639,W,1,05,3.0,191.7,M,-34.0,M,,0000*6A
$GPGSA,A,3,02,05,12,06,09,,,,,,,,4.2,3.0,2.9*37
$GPRMC,225216.000,A,4219.1647,N,08313.9639,W,0.00,173.75,050619,,,A*76
$GPGGA,225217.000,4219.1647,N,08313.9639,W,1,05,3.0,191.7,M,-34.0,M,,0000*6B
$GPGSA,A,3,02,05,12,06,09,,,,,,,,4.2,3.0,2.9*37
$GPGSV,3,1,12,02,73,007,44,05,58,201,42,12,44,237,42,06,38,067,40*7F
$GPGSV,3,2,12,09,21,060,33,04,00,000,32,19,20,044,25,25,02,240,14*79
$GPGSV,3,3,12,03,53,093,,28,45,247,,08,27,099,,15,08,319,*75
$GPRMC,225217.000,A,4219.1647,N,08313.9639,W,0.00,173.75,050619,,,A*77
$GPGGA,225218.000,4219.1647,N,08313.9639,W,1,05,3.0,191.7,M,-34.0,M,,0000*64
$GPGSA,A,3,02,05,12,06,09,,,,,,,,4.2,3.0,2.9*37
$GPRMC,225218.000,A,4219.1647,N,08313.9639,W,0.00,173.75,050619,,,A*78
$GPGGA,225219.000,4219.1647,N,08313.9639,W,1,05,3.0,191.7,M,-34.0,M,,0000*65
$GPGSA,A,3,02,05,12,06,09,,,,,,,,4.2,3.0,2.9*37
$GPRMC,225219.000,A,4219.1647,N,08313.9639,W,0.00,173.75,050619,,,A*79
$GPGGA,225220.000,4219.1647,N,08313.9639,W,1,05,3.0,191.7,M,-34.0,M,,0000*6F
$GPGSA,A,3,02,05,12,06,09,,,,,,,,4.2,3.0,2.9*37
$GPRMC,225220.000,A,4219.1647,N,08313.9639,W,0.00,173.75,050619,,,A*73
$GPGGA,225221.000,4219.1647,N,08313.9639,W,1,05,3.0,191.6,M,-34.0,M,,0000*6F
$GPGSA,A,3,02,05,12,06,09,,,,,,,,4.2,3.0,2.9*37
$GPRMC,225221.000,A,4219.1647,N,08313.9639,W,0.00,173.75,050619,,,A*72
$GPGGA,225222.000,4219.1647,N,08313.9639,W,1,05,3.0,191.6,M,-34.0,M,,0000*6C
$GPGSA,A,3,02,05,12,06,09,,,,,,,,4.2,3.0,2.9*37
$GPGSV,3,1,12,02,73,007,44,05,58,201,42,12,44,237,43,06,38,067,40*7E
$GPGSV,3,2,12,09,21,060,34,04,00,000,32,19,20,044,19,25,02,240,14*71
$GPGSV,3,3,12,03,53,093,,28,45,247,,08,27,099,,15,08,319,*75
$GPRMC,225222.000,A,4219.1647,N,08313.9639,W,0.00,173.75,050619,,,A*71
$GPGGA,225223.000,4219.1647,N,08313.9639,W,1,05,3.0,191.6,M,-34.0,M,,0000*6D
$GPGSA,A,3,02,05,12,06,09,,,,,,,,4.2,3.0,2.9*37
$GPRMC,225223.000,A,4219.1647,N,08313.9639,W,0.00,173.75,050619,,,A*70
$GPGGA,225224.000,4219.1647,N,08313.9639,W,1,05,3.0,191.6,M,-34.0,M,,0000*6A
$GPGSA,A,3,02,05,12,06,09,,,,,,,,4.2,3.0,2.9*37
$GPRMC,225224.000,A,4219.1647,N,08313.9639,W,0.00,173.75,050619,,,A*77
$GPGGA,225225.000,4219.1647,N,08313.9639,W,1,05,3.0,191.6,M,-34.0,M,,0000*6B
$GPGSA,A,3,02,05,12,06,09,,,,,,,,4.2,3.0,2.9*37
$GPRMC,225225.000,A,4219.1647,N,08313.9639,W,0.00,173.75,050619,,,A*76
$GPGGA,225226.000,4219.1647,N,08313.9639,W,1,05,3.0,191.6,M,-34.0,M,,0000*68
$GPGSA,A,3,02,05,12,06,09,,,,,,,,4.2,3.0,2.9*37
$GPRMC,225226.000,A,4219.1647,N,08313.9639,W,0.00,173.75,050619,,,A*75
$GPGGA,225227.000,4219.1647,N,08313.9639,W,1,05,3.0,191.6,M,-34.0,M,,0000*69
$GPGSA,A,3,02,05,12,06,09,,,,,,,,4.2,3.0,2.9*37
$GPGSV,3,1,12,02,73,007,44,05,58,201,42,12,44,237,42,06,38,067,40*7F
$GPGSV,3,2,12,09,21,060,33,04,00,000,32,19,20,044,19,25,02,240,17*75
$GPGSV,3,3,12,03,53,093,,28,45,247,,08,27,099,,15,08,319,*75
$GPRMC,225227.000,A,4219.1647,N,08313.9639,W,0.00,173.75,050619,,,A*74
$GPGGA,225228.000,4219.1647,N,08313.9639,W,1,05,3.0,191.6,M,-34.0,M,,0000*66
$GPGSA,A,3,02,05,12,06,09,,,,,,,,4.2,3.0,2.9*37
$GPRMC,225228.000,A,4219.1647,N,08313.9639,W,0.00,173.75,050619,,,A*7B
$GPGGA,225229.000,4219.1647,N,08313.9639,W,1,05,3.0,191.6,M,-34.0,M,,0000*67
$GPGSA,A,3,02,05,12,06,09,,,,,,,,4.2,3.0,2.9*37
$GPRMC,225229.000,A,4219.1647,N,08313.9639,W,0.00,173.75,050619,,,A*7A
$GPGGA,225230.000,4219.1647,N,08313.9639,W,1,05,3.0,191.6,M,-34.0,M,,0000*6F
$GPGSA,A,3,02,05,12,06,09,,,,,,,,4.2,3.0,2.9*37
$GPRMC,225230.000,A,4219.1647,N,08313.9639,W,0.00,173.75,050619,,,A*72
$GPGGA,225231.000,4219.1647,N,08313.9639,W,1,05,3.0,191.6,M,-34.0,M,,0000*6E
$GPGSA,A,3,02,05,1GPRMC,225231.000,A,4219.1647,N,08313.9639,W,0.00,173.75,050619,,,A*73
$GPGGA,225232.000,4219.1647,N,08313.9639,W,1,05,3.0,191.6,M,-34.0,M,,0000*6D
$GPGSA,A,3,02,05,12,06,09,,,,,,,,4.2,3.0,2.9*37
$GPGSV,3,1,12,02,73,007,44,05,58,201,42,12,44,237,43,06,38,067,40*7E
$GPGSV,3,2,12,09,21,060,33,04,00,000,32,19,20,044,19,25,02,240,18*7A
$GPGSV,3,3,12,03,53,093,,28,45,247,,08,27,099,,15,08,319,*75
$GPRMC,225232.000,A,4219.1647,N,08313.9639,W,0.00,173.75,050619,,,A*70
$GPGGA,225233.000,4219.1647,N,08313.9639,W,1,05,3.0,191.6,M,-34.0,M,,0000*6C
$GPGSA,A,3,02,05,12,06,09,,,,,,,,4.2,3.0,2.9*37
$GPRMC,225233.000,A,4219.1647,N,08313.9639,W,0.00,173.75,050619,,,A*71
$GPGGA,225234.000,4219.1647,N,08313.9639,W,1,05,3.0,191.6,M,-34.0,M,,0000*6B
$GPGSA,A,3,02,05,12,06,09,,,,,,,,4.2,3.0,2.9*37
$GPRMC,225234.000,A,4219.1647,N,08313.9639,W,0.00,173.75,050619,,,A*76
$GPGGA,225235.000,4219.1647,N,08313.9639,W,1,05,3.0,191.6,M,-34.0,M,,0000*6A
$GPGSA,A,3,02,05,12,06,09,,,,,,,,4.2,3.0,2.9*37
$GPRMC,225235.000,A,4219.1647,N,08313.9639,W,0.00,173.75,050619,,,A*77
$GPGGA,225236.000,4219.1647,N,08313.9639,W,1,05,3.0,191.6,M,-34.0,M,,0000*69
$GPGSA,A,3,02,05,12,06,09,,,,,,,,4.2,3.0,2.9*37
$GPRMC,225236.000,A,4219.1647,N,08313.9639,W,0.00,173.75,050619,,,A*74
$GPGGA,225237.000,4219.1647,N,08313.9639,W,1,05,3.0,191.6,M,-34.0,M,,0000*68
$GPGSA,A,3,02,05,12,06,09,,,,,,,,4.2,3.0,2.9*37
$GPGSV,3,1,12,02,73,007,44,05,58,201,42,12,44,237,42,06,38,067,4004,00,000,32,19,20,044,27,25,02,240,20*7C
$GPGSV,3,3,12,03,53,093,,28,45,247,,08,27,099,,15,08,319,*75
$GPRMC,225237.000,A,4219.1647,N,08313.9639,W,0.00,173.75,050619,,,A*75
$GPGGA,225238.000,4219.1647,N,08313.9640,W,1,05,3.0,191.6,M,-34.0,M,,0000*69
$GPGSA,A,3,02,05,12,06,09,,,,,,,,4.2,3.0,2.9*37
$GPRMC,225238.000,A,4219.1647,N,08313.9640,W,0.00,173.75,050619,,,A*74
$GPGGA,225239.000,4219.1647,N,08313.9640,W,1,05,3.0,191.7,M,-34.0,M,,0000*69
$GPGSA,A,3,02,05,12,06,09,,,,,,,,4.2,3.0,2.9*37
$GPRMC,225239.000,A,4219.1647,N,08313.9640,W,0.00,173.75,050619,,,A*75
$GPGGA,225240.000,4219.1647,N,08313.9640,W,1,05,3.0,191.7,M,-34.0,M,,0000*67
$GPGSA,A,3,02,05,12,06,09,,,,,,,,4.2,3.0,2.9*37
$GPRMC,225240.000,A,4219.1647,N,08313.9640,W,0.00,173.75,050619,,,A*7B
$GPGGA,225241.000,4219.1647,N,08313.9640,W,1,05,3.0,191.7,M,-34.0,M,,0000*66
$GPGSA,A,3,02,05,12,06,09,,,,,,,,4.2,3.0,2.9*37
$GPRMC,225241.000,A,4219.1647,N,08313.9640,W,0.00,173.75,050619,,,A*7A
$GPGGA,225242.000,4219.1647,N,08313.9640,W,1,05,3.0,191.7,M,-34.0,M,,0000*65
$GPGSA,A,3,02,05,12,06,09,,,,,,,,4.2,3.0,2.9*37
$GPGSV,3,1,12,02,73,007,44,05,58,201,38,12,44,237,43,06,38,067,39*7D
$GPGSV,3,2,12,09,21,060,33,04,00,000,32,19,20,044,32,25,02,240,27*7F
$GPGSV,3,3,12,03,53,093,,28,45,247,,08,27,099,,15,08,319,*75
$GPRMC,225242.000,A,4219.1647,N,08313.9640,W,0.00,173.75,050619,,,A*79
$GPGGA,225243.000,4219.1647,N,08313.9640,W,1,05,3.0,191.7,M,-34.0,M,,0000*64
$GPGSA,A,3,02,05,12,06,09,,,,,,,,4.2,3.0,2.9*37
$GPRMC,225243.000,A,4219.1647,N,08313.9640,W,0.00,173.75,050619,,,A*78
$GPGGA,225244.000,4219.1647,N,08313.9640,W,1,05,3.0,191.7,M,-34.0,M,,0000*63
$GPGSA,A,3,02,05,12,06,09,,,,,,,,4.2,3.0,2.9*37
$GPRMC,225244.000,A,4219.1647,N,08313.9640,W,0.00,173.75,050619,,,A*7F
$GPGGA,225245.000,4219.1647,N,08313.9640,W,1,05,3.0,191.7,M,-34.0,M,,0000*62
$GPGSA,A,3,02,05,12,06,09,,,,,,,,4.2,3.0,2.9*37
$GPRMC,225245.000,A,4219.1647,N,08313.9640,W,0.00,173.75,050619,,,A*7E
$GPGGA,225246.000,4219.1647,N,08313.9640,W,1,05,3.0,191.7,M,-34.0,M,,0000*61
$GPGSA,A,3,02,05,12,06,09,,,,,,,,4.2,3.0,2.9*37
$GPRMC,225246.000,A,4219.1647,N,08313.9640,W,0.00,173.75,050619,,,A*7D
$GPGGA,225247.000,4219.1647,N,08313.9640,W,1,05,3.0,191.7,M,-34.0,M,,0000*60
$GPGSA,A,3,02,05,12,06,09,,,,,,,,4.2,3.0,2.9*37
$GPGSV,3,1,12,02,73,007,44,05,58,201,38,12,44,237,43,06,38,067,40*73
$GPGSV,3,2,12,09,21,060,32,04,00,000,33,19,20,044,31,25,02,240,26*7D
$GPGSV,3,3,12,03,53,093,,28,45,247,,08,27,099,,15,08,319,*75
$GPRMC,225247.000,A,4219.1647,N,08313.9640,W,0.00,173.75,050619,,,A*7C
$GPGGA,225248.000,4219.1647,N,08313.9640,W,1,05,3.0,191.7,M,-34.0,M,,0000*6F
$GPGSA,A,3,02,05,12,06,09,,,,,,,,4.2,3.0,2.9*37
$GPRMC,225248.000,A,4219.1647,N,08313.9640,W,0.00,173.75,050619,,,A*73
$GPGGA,225249.000,4219.1647,N,08313.9640,W,1,05,3.0,191.7,M,-34.0,M,,0000*6E
$GPGSA,A,3,02,05,12,06,09,,,,,,,,4.2,3.0,2.9*37
$GPRMC,225249.000,A,4219.1647,N,08313.9640,W,0.00,173.75,050619,,,A*72
$GPGGA,225250.000,4219.1647,N,08313.9640,W,1,05,3.0,191.7,M,-34.0,M,,0000*66
$GPGSA,A,3,02,05,12,06,09,,,,,,,,4.2,3.0,2.9*37
$GPRMC,225250.000,A,4219.1647,N,08313.9640,W,0.00,173.75,050619,,,A*7A
$GPGGA,225251.000,4219.1647,N,08313.9640,W,1,05,3.0,191.7,M,-34.0,M,,0000*67
$GPGSA,A,3,02,05,12,06,09,,,,,,,,4.2,3.0,2.9*37
$GPRMC,225251.000,A,4219.1647,N,08313.9640,W,0.00,173.75,050619,,,A*7B
$GPGGA,225252.000,4219.1647,N,08313.9640,W,1,05,3.0,191.7,M,-34.0,M,,0000*64
$GPGSA,A,3,02,05,12,06,09,,,,,,,,4.2,3.0,2.9*37
$GPGSV,3,1,12,02,73,007,44,05,58,201,37,12,44,237,43,06,38,067,40*7C
$GPGSV,3,2,12,09,21,060,21,04,00,000,33,19,20,044,31,25,02,240,26*7F
$GPGSV,3,3,12,03,53,093,,28,45,247,,08,27,099,,15,08,319,*75
$GPRMC,225252.000,A,4219.1647,N,08313.9640,W,0.00,173.75,050619,,,A*78
$GPGGA,225253.000,4219.1647,N,08313.9640,W,1,05,3.0,191.7,M,-34.0,M,,0000*65
$GPGSA,A,3,02,05,12,06,09,,,,,,,,4.2,3.0,2.9*37
$GPRMC,225253.000,A,4219.1647,N,08313.9640,W,0.00,173.75,050619,,,A*79
$GPGGA,225254.000,4219.1647,N,08313.9640,W,1,05,3.0,191.7,M,-34.0,M,,0000*62
$GPGSA,A,3,02,05,12,06,09,,,,,,,,4.2,3.0,2.9*37
$GPRMC,225254.000,A,4219.1647,N,08313.9640,W,0.00,173.75,050619,,,A*7E
$GPGGA,225255.000,4219.1647,N,08313.9640,W,1,05,3.0,191.7,M,-34.0,M,,0000*63
$GPGSA,A,3,02,05,12,06,09,,,,,,,,4.2,3.0,2.9*37
$GPRMC,225255.000,A,4219.1647,N,08313.9640,W,0.00,173.75,050619,,,A*7F
$GPGGA,225256.000,4219.1647,N,08313.9640,W,1,05,3.0,191.7,M,-34.2,06,09,,,,,,,,4.2,3.0,2.9*37
$GPRMC,225256.000,A,4219.1647,N,08313.9640,W,0.00,173.75,050619,,,A*7C
$GPGGA,225257.000,4219.1647,N,08313.9640,W,1,05,3.0,191.7,M,-34.0,M,,0000*61
$GPGSA,A,3,02,05,12,06,09,,,,,,,,4.2,3.0,2.9*37
$GPGSV,3,1,12,02,73,007,44,05,58,201,37,12,44,237,43,06,38,067,41*7D
$GPGSV,3,2,12,09,21,060,28,04,00,000,33,19,20,044,30,25,02,240,26*77
$GPGSV,3,3,12,03,53,093,,28,45,247,,08,27,099,,15,08,319,*75
$GPRMC,225257.000,A,4219.1647,N,08313.9640,W,0.00,173.75,050619,,,A*7D
$GPGGA,225258.000,4219.1647,N,08313.9640,W,1,05,3.0,191.7,M,-34.0,M,,0000*6E
$GPGSA,A,3,02,05,12,06,09,,,,,,,,4.2,3.0,2.9*37
$GPRMC,225258.000,A,4219.1647,N,08313.9640,W,0.00,173.75,050619,,,A*72
$GPGGA,225259.000,4219.1647,N,08313.9640,W,1,05,3.0,191.7,M,-34.0,M,,0000*6F
$GPGSA,A,3,02,05,12,06,09,,,,,,,,4.2,3.0,2.9*37
$GPRMC,225259.000,A,4219.1647,N,08313.9640,W,0.00,173.75,050619,,,A*73
$GPGGA,225300.000,4219.1647,N,08313.9640,W,1,05,3.0,191.7,M,-34.0,M,,0000*62
$GPGSA,A,3,02,05,12,06,09,,,,,,,,4.2,3.0,2.9*37
$GPRMC,225300.000,A,4219.1647,N,08313.9640,W,0.00,173.75,050619,,,A*7E
$GPGGA,225301.000,4219.1647,N,08313.9640,W,1,05,3.0,191.7,M,-34.0,M,,0000*63
$GPGSA,A,3,02,05,12,06,09,,,,,,,,4.2,3.0,2.9*37
$GPRMC,225301.000,A,4219.1647,N,08313.9640,W,0.00,173.75,050619,,,A*7F
$GPGGA,225302.000,4219.1647,N,08313.9640,W,1,05,3.0,191.7,M,-34.0,M,,0000*60
$GPGSA,A,3,02,05,12,06,09,,,,,,,,4.2,3.0,2.9*37
$GPGSV,3,1,12,02,73,007,44,05,58,201,36,12,44,237,42,06,38,067,41*7D
$GPGSV,3,2,12,09,21,060,27,04,00,000,33,19,20,044,27,25,02,240,25*7D
$GPGSV,3,3,12,03,53,093,,28,45,247,,08,27,099,,15,08,319,*75
$GPRMC,225302.000,A,4219.1647,N,08313.9640,W,0.00,173.75,050619,,,A*7C
$GPGGA,225303.000,4219.1647,N,08313.9640,W,1,05,3.0,191.7,M,-34.0,M,,0000*61
$GPGSA,A,3,02,05,12,06,09,,,,,,,,4.2,3.0,2.9*37
$GPRMC,225303.000,A,4219.1647,N,08313.9640,W,0.00,173.75,050619,,,A*7D
$GPGGA,225304.000,4219.1647,N,08313.9640,W,1,05,3.0,191.7,M,-34.0,M,,0000*66
$GPGSA,A,3,02,05,12,06,09,,,,,,,,4.2,3.0,2.9*37
$GPRMC,225304.000,A,4219.1647,N,08313.9640,W,0.00,173.75,050619,,,A*7A
$GPGGA,225305.000,4219.1647,N,08313.9640,W,1,05,3.0,191.7,M,-34.0,M,,0000*67
$GPGSA,A,3,02,05,12,06,09,,,,,,,,4.2,3.0,2.9*37
$GPRMC,225305.000,A,4219.1647,N,08313.9640,W,0.00,173.75,050619,,,A*7B
$GPGGA,225306.000,4219.1647,N,08313.9639,W,1,05,3.0,191.7,M,-34.0,M,,0000*6A
$GPGSA,A,3,02,05,12,06,09,,,,,,,,4.2,3.0,2.9*37
$GPRMC,225306.000,A,4219.1647,N,08313.9639,W,0.00,173.75,050619,,,A*76
$GPGGA,225307.000,4219.1647,N,08313.9639,W,1,05,3.0,191.7,M,-34.0,M,,0000*6B
$GPGSA,A,3,02,05,12,06,09,,,,,,,,4.2,3.0,2.9*37
$GPGSV,3,1,12,02,73,007,44,05,58,201,35,12,44,237,43,06,38,067,41*7F
$GPGSV,3,2,12,09,21,060,23,04,00,000,33,19,20,044,27,25,02,240,25*79
$GPGSV,3,3,12,03,53,093,,28,45,247,,08,27,099,,15,08,319,*75
$GPRMC,225307.000,A,4219.1647,N,08313.9639,W,0.00,173.75,050619,,,A*77
$GPGGA,225308.000,4219.1647,N,08313.9639,W,1,05,3.0,191.7,M,-34.0,M,,0000*64
$GPGSA,A,3,02,05,12,06,09,,,,,,,,4.2,3.0,2.9*37
$GPRMC,225308.000,A,4219.1647,N,08313.9639,W,0.00,173.75,050619,,,A*78
$GPGGA,225309.000,4219.1647,N,08313.9639,W,1,05,3.0,191.7,M,-34.0,M,,0000*65
$GPGSA,A,3,02,05,12,06,09,,,,,,,,4.2,3.0,2.9*37
$GPRMC,225309.000,A,4219.1647,N,08313.9639,W,0.00,173.75,050619,,,A*79
$GPGGA,225310.000,4219.1647,N,08313.9639,W,1,05,3.0,191.7,M,-34.0,M,,0000*6D
$GPGSA,A,3,02,05,12,06,09,,,,,,,,4.2,3.0,2.9*37
$GPRMC,225310.000,A,4219.1647,N,08313.9639,W,0.00,173.75,050619,,,A*71
$GPGGA,225311.000,4219.1646,N,08313.9639,W,1,05,3.0,191.7,M,-34.0,M,,0000*6D
$GPGSA,A,3,02,05,1GPRMC,225311.000,A,4219.1646,N,08313.9639,W,0.00,173.75,050619,,,A*71
$GPGGA,225312.000,4219.1646,N,08313.9639,W,1,05,3.0,191.8,M,-34.0,M,,0000*61
$GPGSA,A,3,02,05,12,06,09,,,,,,,,4.2,3.0,2.9*37
$GPGSV,3,1,12,02,73,007,44,05,58,201,35,12,44,237,43,06,38,067,40*7E
$GPGSV,3,2,12,09,21,060,30,04,00,000,34,19,20,044,25,25,02,240,25*7E
$GPGSV,3,3,12,03,53,093,,28,45,247,,08,27,099,,15,08,319,*75
$GPRMC,225312.000,A,4219.1646,N,08313.9639,W,0.00,173.75,050619,,,A*72
$GPGGA,225313.000,4219.1646,N,08313.9640,W,1,05,3.0,191.8,M,-34.0,M,,0000*6E
