$GPRMC,231223.000,A,4219.1678,N,08313.9631,W,0.00,144.27,050619,,,A*72
$GPGGA,231224.000,4219.1678,N,08313.9631,W,1,05,3.2,177.3,M,-34.0,M,,0000*64
$GPGSA,A,3,02,05,12,06,09,,,,,,,,3.9,3.2,2.2*32
$GPRMC,231224.000,A,4219.1678,N,08313.9631,W,0.00,144.27,050619,,,A*75
$GPGGA,231225.000,4219.1679,N,08313.9631,W,1,05,3.2,177.3,M,-34.0,M,,0000*64
$GPGSA,A,3,02,05,12,06,09,,,,,,,,3.9,3.2,2.2*32
$GPRMC,231225.000,A,4219.1679,N,08313.9631,W,0.00,144.27,050619,,,A*75
$GPGGA,231226.000,4219.1679,N,08313.9631,W,1,05,3.2,177.3,M,-34.0,M,,0000*67
$GPGSA,A,3,02,05,12,06,09,,,,,,,,3.9,3.2,2.2*32
$GPRMC,231226.000,A,4219.1679,N,08313.9631,W,0.00,144.27,050619,,,A*76
$GPGGA,231227.000,4219.1679,N,08313.9631,W,1,05,3.2,177.3,M,-34.0,M,,0000*66
$GPGSA,A,3,02,05,12,06,09,,,,,,,,3.9,3.2,2.2*32
$GPRMC,231227.000,A,4219.1679,N,08313.9631,W,0.00,144.27,050619,,,A*77
$GPGGA,231228.000,4219.1679,N,08313.9631,W,1,05,3.2,177.3,M,-34.0,M,,0000*69
$GPGSA,A,3,02,05,12,06,09,,,,,,,,3.9,3.2,2.2*32
$GPGSV,3,1,12,02,70,036,36,05,69,203,26,12,37,227,31,06,31,074,31*75
$GPGSV,3,2,12,09,19,051,31,04,00,000,28,28,53,257,,03,51,076,*78
$GPGSV,3,3,12,08,19,107,,15,16,317,,19,13,039,,25,09,245,*77
$GPRMC,231228.000,A,4219.1679,N,08313.9631,W,0.00,144.27,050619,,,A*78
$GPGGA,231229.000,4219.1679,N,08313.9631,W,1,05,3.2,177.3,M,-34.0,M,,0000*68
$GPGSA,A,3,02,05,12,06,09,,,,,,,,3.9,3.2,2.2*32
$GPRMC,231229.000,A,4219.1679,N,08313.9631,W,0.00,144.27,050619,,,A*79
$GPGGA,231230.000,4219.1679,N,08313.9631,W,1,05,3.2,177.3,M,-34.0,M,,0000*60
$GPGSA,A,3,02,05,12,06,09,,,,,,,,3.9,3.2,2.2*32
$GPRMC,231230.000,A,4219.1679,N,08313.9631,W,0.00,144.27,050619,,,A*71
$GPGGA,231231.000,4219.1679,N,08313.9631,W,1,05,3.2,177.3,M,-34.0,M,,0000*61
$GPGSA,A,3,02,05,12,06,09,,,,,,,,3.9,3.2,2.2*32
$GPRMC,231231.000,A,4219.1679,N,08313.9631,W,0.00,144.27,050619,,,A*70
$GPGGA,231232.000,4219.1679,N,08313.9631,W,1,05,3.2,177.3,M,-34.0,M,,0000*62
$GPGSA,A,3,02,05,12,06,09,,,,,,,,3.9,3.2,2.2*32
$GPRMC,231232.000,A,4219.1679,N,08313.9631,W,0.00,144.27,050619,,,A*73
$GPGGA,231233.000,4219.1679,N,08313.9631,W,1,05,3.2,177.3,M,-34.0,M,,0000*63
$GPGSA,A,3,02,05,12,06,09,,,,,,,,3.9,3.2,2.2*32
$GPGSV,3,1,12,02,70,036,36,05,69,203,26,12,37,227,31,06,31,074,32*76
$GPGSV,3,2,12,09,19,051,26,04,00,000,29,28,53,257,,03,51,076,*7F
$GPGSV,3,3,12,08,19,107,,15,16,317,,19,13,039,,25,09,245,*77
$GPRMC,231233.000,A,4219.1679,N,08313.9631,W,0.00,144.27,050619,,,A*72
$GPGGA,231234.000,4219.1679,N,08313.9631,W,1,05,3.2,177.3,M,-34.0,M,,0000*64
$GPGSA,A,3,02,05,12,06,09,,,,,,,,3.9,3.2,2.2*32
$GPRMC,231234.000,A,4219.1679,N,08313.9631,W,0.00,144.27,050619,,,A*75
$GPGGA,231235.000,4219.1679,N,08313.9632,W,1,05,3.2,177.2,M,-34.0,M,,0000*67
$GPGSA,A,3,02,05,12,06,09,,,,,,,,3.9,3.2,2.2*32
$GPRMC,231235.000,A,4219.1679,N,08313.9632,W,0.07,144.27,050619,,,A*70
$GPGGA,231236.000,4219.1679,N,08313.9632,W,1,05,3.2,177.2,M,-34.0,M,,0000*64
$GPGSA,A,3,02,05,12,06,09,,,,,,,,3.9,3.2,2.2*32
$GPRMC,231236.000,A,4219.1679,N,08313.9632,W,0.00,144.27,050619,,,A*74
$GPGGA,231237.000,4219.1679,N,08313.9632,W,1,05,3.2,177.2,M,-34.0,M,,0000*65
$GPGSA,A,3,02,05,12,06,09,,,,,,,,3.9,3.2,2.2*32
$GPRMC,231237.000,A,4219.1679,N,08313.9632,W,0.00,144.27,050619,,,A*75
$GPGGA,231238.000,4219.1679,N,08313.9632,W,1,05,3.2,177.2,M,-34.0,M,,0000*6A
$GPGSA,A,3,02,05,12,06,09,,,,,,,,3.9,3.2,2.2*32
$GPGSV,3,1,12,02,70,036,36,05,69,203,27,12,37,227,30,06,31,074,33*77
$GPGSV,3,2,12,09,19,051,26,04,00,000,30,28,53,257,,03,51,076,*77
$GPGSV,3,3,12,08,19,107,,15,16,317,,19,13,039,,25,09,245,*77
$GPRMC,231238.000,A,4219.1679,N,08313.9632,W,0.00,144.27,050619,,,A*7A
$GPGGA,231239.000,4219.1679,N,08313.9632,W,1,05,3.2,177.2,M,-34.0,M,,0000*6B
$GPGSA,A,3,02,05,12,06,09,,,,,,,,3.9,3.2,2.2*32
$GPRMC,231239.000,A,4219.1679,N,08313.9632,W,0.00,144.27,050619,,,A*7B
$GPGGA,231240.000,4219.1679,N,08313.9632,W,1,05,3.2,177.2,M,-34.0,M,,0000*65
$GPGSA,A,3,02,05,12,06,09,,,,,,,,3.9,3.2,2.2*32
$GPRMC,231240.000,A,4219.1679,N,08313.9632,W,0.00,144.27,050619,,,A*75
$GPGGA,231241.000,4219.1679,N,08313.9632,W,1,05,3.2,177.2,M,-34.0,M,,0000*64
$GPGSA,A,3,02,05,12,06,09,,,,,,,,3.9,3.2,2.2*32
$GPRMC,231241.000,A,4219.1679,N,08313.9632,W,0.00,144.27,050619,,,A*74
$GPGGA,231242.000,4219.1678,N,08313.9632,W,1,05,3.2,177.3,M,-34.0,M,,0000*67
$GPGSA,A,3,02,05,12,06,09,,,,,,,,3.9,3.2,2.2*32
$GPRMC,231242.000,A,4219.1678,N,08313.9632,W,0.09,144.27,050619,,,A*7F
$GPGGA,231243.000,4219.1679,N,08313.9632,W,1,05,3.2,177.3,M,-34.0,M,,0000*67
$GPGSA,A,3,02,05,12,06,09,,,,,,,,3.9,3.2,2.2*32
$GPGSV,3,1,12,02,70,036,36,05,69,203,26,12,37,227,30,06,31,074,29*7D
$GPGSV,3,2,12,09,19,051,27,04,00,000,20,28,53,257,,03,51,076,*77
$GPGSV,3,3,12,08,19,107,,15,16,317,,19,13,039,,25,09,245,*77
$GPRMC,231243.000,A,4219.1679,N,08313.9632,W,0.00,144.27,050619,,,A*76
$GPGGA,231244.000,4219.1679,N,08313.9632,W,1,05,3.2,177.3,M,-34.0,M,,0000*60
$GPGSA,A,3,02,05,12,06,09,,,,,,,,3.9,3.2,2.2*32
$GPRMC,231244.000,A,4219.1679,N,08313.9632,W,0.00,144.27,050619,,,A*71
$GPGGA,231245.000,4219.1678,N,08313.9633,W,1,05,3.2,177.4,M,-34.0,M,,0000*66
$GPGSA,A,3,02,05,12,06,09,,,,,,,,3.9,3.2,2.2*32
$GPRMC,231245.000,A,4219.1678,N,08313.9633,W,0.08,144.27,050619,,,A*78
$GPGGA,231246.000,4219.1676,N,08313.9632,W,1,05,3.2,177.9,M,-34.0,M,,0000*67
$GPGSA,A,3,02,05,12,06,09,,,,,,,,3.9,3.2,2.2*32
$GPRMC,231246.000,A,4219.1676,N,08313.9632,W,0.01,144.27,050619,,,A*7D
$GPGGA,231247.000,4219.1676,N,08313.9632,W,1,05,3.2,177.9,M,-34.0,M,,0000*66
$GPGSA,A,3,02,05,12,06,09,,,,,,,,3.9,3.2,2.2*32
$GPRMC,231247.000,A,4219.1676,N,08313.9632,W,0.00,144.27,050619,,,A*7D
$GPGGA,231248.000,4219.1676,N,08313.9632,W,1,05,3.2,177.9,M,-34.0,M,,0000*69
$GPGSA,A,3,02,05,12,06,09,,,,,,,,3.9,3.2,2.2*32
$GPGSV,3,1,12,02,70,036,37,05,69,203,35,12,37,227,29,06,31,074,35*7B
$GPGSV,3,2,12,09,19,051,33,04,00,000,28,28,53,257,,03,51,076,*7A
$GPGSV,3,3,12,08,19,107,,15,16,317,,19,13,039,,25,09,245,*77
$GPRMC,231248.000,A,4219.1676,N,08313.9632,W,0.00,144.27,050619,,,A*72
$GPGGA,231249.000,4219.1676,N,08313.9632,W,1,05,3.2,177.9,M,-34.0,M,,0000*68
$GPGSA,A,3,02,05,12,06,09,,,,,,,,3.9,3.2,2.2*32
$GPRMC,231249.000,A,4219.1676,N,08313.9632,W,0.00,144.27,050619,,,A*73
$GPGGA,231250.000,4219.1676,N,08313.9632,W,1,05,3.2,177.9,M,-34.0,M,,0000*60
$GPGSA,A,3,02,05,12,06,09,,,,,,,,3.9,3.2,2.2*32
$GPRMC,231250.000,A,4219.1676,N,08313.9632,W,0.00,144.27,050619,,,A*7B
$GPGGA,231251.000,4219.1676,N,08313.9632,W,1,05,3.2,177.9,M,-34.0,M,,0000*61
$GPGSA,A,3,02,05,12,06,09,,,,,,,,3.9,3.2,2.2*32
$GPRMC,231251.000,A,4219.1676,N,08313.9632,W,0.00,144.27,050619,,,A*7A
$GPGGA,231252.000,4219.1676,N,08313.9632,W,1,05,3.2,177.9,M,-34.0,M,,0000*62
$GPGSA,A,3,02,05,12,06,09,,,,,,,,3.9,3.2,2.2*32
$GPRMC,231252.000,A,4219.1676,N,08313.9632,W,0.00,144.27,050619,,,A*79
$GPGGA,231253.000,4219.1676,N,08313.9632,W,1,05,3.2,177.9,M,-34.0,M,,0000*63
$GPGSA,A,3,02,05,12,06,09,,,,,,,,3.9,3.2,2.2*32
$GPGSV,3,1,12,02,70,036,36,05,69,203,32,12,37,227,29,06,31,074,33*7B
$GPGSV,3,2,12,09,19,051,32,04,00,000,29,28,53,257,,03,51,076,*7A
$GPGSV,3,3,12,08,19,107,,15,16,317,,19,13,039,,25,09,245,*77
$GPRMC,231253.000,A,4219.1676,N,08313.9632,W,0.00,144.27,050619,,,A*78
$GPGGA,231254.000,4219.1676,N,08313.9632,W,1,05,3.2,177.9,M,-34.0,M,,0000*64
$GPGSA,A,3,02,05,12,06,09,,,,,,,,3.9,3.2,2.2*32
$GPRMC,231254.000,A,4219.1676,N,08313.9632,W,0.00,144.27,050619,,,A*7F
$GPGGA,231255.000,4219.1676,N,08313.9632,W,1,05,3.2,177.9,M,-34.0,M,,0000*65
$GPGSA,A,3,02,05,12,06,09,,,,,,,,3.9,3.2,2.2*32
$GPRMC,231255.000,A,4219.1676,N,08313.9632,W,0.00,144.27,050619,,,A*7E
$GPGGA,231256.000,4219.1676,N,08313.9632,W,1,05,3.2,177.9,M,-34.0,M,,0000*66
$GPGSA,A,3,02,05,12,06,09,,,,,,,,3.9,3.2,2.2*32
$GPRMC,231256.000,A,4219.1676,N,08313.9632,W,0.00,144.27,050619,,,A*7D
$GPGGA,231257.000,4219.1676,N,08313.9632,W,1,05,3.2,177.9,M,-34.0,M,,0000*67
$GPGSA,A,3,02,05,12,06,09,,,,,,,,3.9,3.2,2.2*32
$GPRMC,231257.000,A,4219.1676,N,08313.9632,W,0.00,144.27,050619,,,A*7C
$GPGGA,231258.000,4219.1676,N,08313.9632,W,1,05,3.2,177.9,M,-34.0,M,,0000*68
$GPGSA,A,3,02,05,12,06,09,,,,,,,,3.9,3.2,2.2*32
$GPGSV,3,1,12,02,70,036,38,05,69,203,34,12,37,227,29,06,31,074,34*74
$GPGSV,3,2,12,09,19,051,28,04,00,000,28,28,53,257,,03,51,076,*70
$GPGSV,3,3,12,08,19,107,,15,16,317,,19,13,039,,25,09,245,*77
$GPRMC,231258.000,A,4219.1676,N,08313.9632,W,0.00,144.27,050619,,,A*73
$GPGGA,231259.000,4219.1676,N,08313.9632,W,1,05,3.2,178.0,M,-34.0,M,,0000*6F
$GPGSA,A,3,02,05,12,06,09,,,,,,,,3.9,3.2,2.2*32
$GPRMC,231259.000,A,4219.1676,N,08313.9632,W,0.00,144.27,050619,,,A*72
$GPGGA,231300.000,4219.1676,N,08313.9632,W,1,05,3.2,177.9,M,-34.0,M,,0000*64
$GPGSA,A,3,02,05,12,06,09,,,,,,,,3.9,3.2,2.2*32
$GPRMC,231300.000,A,4219.1676,N,08313.9632,W,0.00,144.27,050619,,,A*7F
$GPGGA,231301.000,4219.1676,N,08313.9632,W,1,05,3.2,177.9,M,-34.0,M,,0000*65
$GPGSA,A,3,02,05,12,06,09,,,,,,,,3.9,3.2,2.2*32
$GPRMC,231301.000,A,4219.1676,N,08313.9632,W,0.00,144.27,050619,,,A*7E
$GPGGA,231302.000,4219.1676,N,08313.9632,W,1,05,3.2,177.9,M,-34.0,M,,0000*66
$GPGSA,A,3,02,05,12,06,09,,,,,,,,3.9,3.2,2.2*32
$GPRMC,231302.000,A,4219.1676,N,08313.9632,W,0.00,144.27,050619,,,A*7D
$GPGGA,231303.000,4219.1676,N,08313.9632,W,1,05,3.2,178.0,M,-34.0,M,,0000*61
$GPGSA,A,3,02,05,12,06,09,,,,,,,,3.9,3.2,2.2*32
$GPGSV,3,1,12,02,70,036,36,05,69,203,35,12,37,227,35,06,31,074,33*71
$GPGSV,3,2,12,09,19,051,35,28,53,257,,03,51,076,,08,19,107,*74
$GPGSV,3,3,12,15,16,317,,19,13,039,,25,09,245,,21,00,038,*79
$GPRMC,231303.000,A,4219.1676,N,08313.9632,W,0.20,144.27,050619,,,A*7E
$GPGGA,231304.000,4219.1676,N,08313.9632,W,1,05,3.2,178.0,M,-34.0,M,,0000*66
$GPGSA,A,3,02,05,12,06,09,,,,,,,,3.9,3.2,2.2*32
$GPRMC,231304.000,A,4219.1676,N,08313.9632,W,0.25,144.27,050619,,,A*7C
$GPGGA,231305.000,4219.1676,N,08313.9632,W,1,05,3.2,178.3,M,-34.0,M,,0000*64
$GPGSA,A,3,02,05,12,06,09,,,,,,,,3.9,3.2,2.2*32
$GPRMC,231305.000,A,4219.1676,N,08313.9632,W,0.19,144.27,050619,,,A*72
$GPGGA,231306.000,4219.1676,N,08313.9632,W,1,05,3.2,178.3,M,-34.0,M,,0000*67
$GPGSA,A,3,02,05,12,06,09,,,,,,,,3.9,3.2,2.2*32
$GPRMC,231306.000,A,4219.1676,N,08313.9632,W,0.00,144.27,050619,,,A*79
$GPGGA,231307.000,4219.1676,N,08313.9633,W,1,05,3.2,178.3,M,-34.2,06,09,,,,,,,,3.9,3.2,2.2*32
$GPRMC,231307.000,A,4219.1676,N,08313.9633,W,0.00,144.27,050619,,,A*79
$GPGGA,231308.000,4219.1676,N,08313.9633,W,1,05,3.2,178.3,M,-34.0,M,,0000*68
$GPGSA,A,3,02,05,12,06,09,,,,,,,,3.9,3.2,2.2*32
$GPGSV,3,1,12,02,70,036,34,05,69,203,36,12,37,227,34,06,31,074,34*76
$GPGSV,3,2,12,09,19,051,34,28,53,257,,03,51,076,,08,19,107,*75
$GPGSV,3,3,12,15,16,317,,19,13,039,,25,09,245,,21,00,038,*79
$GPRMC,231308.000,A,4219.1676,N,08313.9633,W,0.00,144.27,050619,,,A*76
$GPGGA,231309.000,4219.1676,N,08313.9633,W,1,05,3.2,178.3,M,-34.0,M,,0000*69
$GPGSA,A,3,02,05,12,06,09,,,,,,,,3.9,3.2,2.2*32
$GPRMC,231309.000,A,4219.1676,N,08313.9633,W,0.00,144.27,050619,,,A*77
$GPGGA,231310.000,4219.1676,N,08313.9633,W,1,05,3.2,178.3,M,-34.0,M,,0000*61
$GPGSA,A,3,02,05,12,06,09,,,,,,,,3.9,3.2,2.2*32
$GPRMC,231310.000,A,4219.1676,N,08313.9633,W,0.00,144.27,050619,,,A*7F
$GPGGA,231311.000,4219.1676,N,08313.9633,W,1,05,3.2,178.3,M,-34.0,M,,0000*60
$GPGSA,A,3,02,05,12,06,09,,,,,,,,3.9,3.2,2.2*32
$GPRMC,231311.000,A,4219.1676,N,08313.9633,W,0.00,144.27,050619,,,A*7E
$GPGGA,231312.000,4219.1676,N,08313.9633,W,1,05,3.2,178.3,M,-34.0,M,,0000*63
$GPGSA,A,3,02,05,12,06,09,,,,,,,,3.9,3.2,2.2*32
$GPRMC,231312.000,A,4219.1676,N,08313.9633,W,0.00,144.27,050619,,,A*7D
$GPGGA,231313.000,4219.1676,N,08313.9633,W,1,05,3.2,178.3,M,-34.0,M,,0000*62
$GPGSA,A,3,02,05,12,06,09,,,,,,,,3.9,3.2,2.2*32
$GPGSV,3,1,12,02,70,036,34,05,69,203,35,12,37,227,34,06,31,074,35*74
$GPGSV,3,2,12,09,19,051,35,28,53,257,,03,51,076,,08,19,107,*74
$GPGSV,3,3,12,15,16,317,,19,13,039,,25,09,245,,21,00,038,*79
$GPRMC,231313.000,A,4219.1676,N,08313.9633,W,0.00,144.27,050619,,,A*7C
$GPGGA,231314.000,4219.1676,N,08313.9633,W,1,05,3.2,178.3,M,-34.0,M,,0000*65
$GPGSA,A,3,02,05,12,06,09,,,,,,,,3.9,3.2,2.2*32
$GPRMC,231314.000,A,4219.1676,N,08313.9633,W,0.00,144.27,050619,,,A*7B
$GPGGA,231315.000,4219.1676,N,08313.9633,W,1,05,3.2,178.3,M,-34.0,M,,0000*64
$GPGSA,A,3,02,05,12,06,09,,,,,,,,3.9,3.2,2.2*32
$GPRMC,231315.000,A,4219.1676,N,08313.9633,W,0.00,144.27,050619,,,A*7A
$GPGGA,231316.000,4219.1676,N,08313.9633,W,1,05,3.2,178.3,M,-34.0,M,,0000*67
$GPGSA,A,3,02,05,12,06,09,,,,,,,,3.9,3.2,2.2*32
$GPRMC,231316.000,A,4219.1676,N,08313.9633,W,0.00,144.27,050619,,,A*79
$GPGGA,231317.000,4219.1676,N,08313.9633,W,1,05,3.2,178.3,M,-34.0,M,,0000*66
$GPGSA,A,3,02,05,12,06,09,,,,,,,,3.9,3.2,2.2*32
$GPRMC,231317.000,A,4219.1676,N,08313.9633,W,0.00,144.27,050619,,,A*78
$GPGGA,231318.000,4219.1676,N,08313.9633,W,1,05,3.2,178.3,M,-34.0,M,,0000*69
$GPGSA,A,3,02,05,12,06,09,,,,,,,,3.9,3.2,2.2*32
$GPGSV,3,1,12,02,70,036,34,05,69,203,34,12,37,227,34,06,31,074,35*75
$GPGSV,3,2,12,09,19,051,36,28,53,257,,03,51,076,,08,19,107,*77
$GPGSV,3,3,12,15,16,317,,19,13,039,,25,09,245,,21,00,038,*79
$GPRMC,231318.000,A,4219.1676,N,08313.9633,W,0.00,144.27,050619,,,A*77
$GPGGA,231319.000,4219.1676,N,08313.9633,W,1,05,3.2,178.3,M,-34.0,M,,0000*68
$GPGSA,A,3,02,05,12,06,09,,,,,,,,3.9,3.2,2.2*32
$GPRMC,231319.000,A,4219.1676,N,08313.9633,W,0.00,144.27,050619,,,A*76
$GPGGA,231320.000,4219.1676,N,08313.9633,W,1,05,3.2,178.3,M,-34.0,M,,0000*62
$GPGSA,A,3,02,05,12,06,09,,,,,,,,3.9,3.2,2.2*32
$GPRMC,231320.000,A,4219.1676,N,08313.9633,W,0.00,144.27,050619,,,A*7C
$GPGGA,231321.000,4219.1676,N,08313.9633,W,1,05,3.2,178.3,M,-34.0,M,,0000*63
$GPGSA,A,3,02,05,12,06,09,,,,,,,,3.9,3.2,2.2*32
$GPRMC,231321.000,A,4219.1676,N,08313.9633,W,0.00,144.27,050619,,,A*7D
$GPGGA,231322.000,4219.1676,N,08313.9633,W,1,05,3.2,178.3,M,-34.0,M,,0000*60
$GPGSA,A,3,02,05,12,06,09,,,,,,,,3.9,3.2,2.2*32
$GPRMC,231322.000,A,4219.1676,N,08313.9633,W,0.00,144.27,050619,,,A*7E
$GPGGA,231323.000,4219.1676,N,08313.9633,W,1,05,3.2,178.3,M,-34.0,M,,0000*61
$GPGSA,A,3,02,05,12,06,09,,,,,,,,3.9,3.2,2.2*32
$GPGSV,3,1,12,02,70,036,34,05,69,203,30,12,37,227,35,06,31,074,34*71
$GPGSV,3,2,12,09,19,051,35,28,53,257,,03,51,076,,08,19,107,*74
$GPGSV,3,3,12,15,16,317,,19,13,039,,25,09,245,,21,00,038,*79
$GPRMC,231323.000,A,4219.1676,N,08313.9633,W,0.00,144.27,050619,,,A*7F
$GPGGA,231324.000,4219.1676,N,08313.9633,W,1,05,3.2,178.3,M,-34.0,M,,0000*66
$GPGSA,A,3,02,05,12,06,09,,,,,,,,3.9,3.2,2.2*32
$GPRMC,231324.000,A,4219.1676,N,08313.9633,W,0.00,144.27,050619,,,A*78
$GPGGA,231325.000,4219.1676,N,08313.9633,W,1,05,3.2,178.3,M,-34.0,M,,0000*67
$GPGSA,A,3,02,05,12,06,09,,,,,,,,3.9,3.2,2.2*32
$GPRMC,231325.000,A,4219.1676,N,08313.9633,W,0.00,144.27,050619,,,A*79
$GPGGA,231326.000,4219.1676,N,08313.9633,W,1,05,3.2,178.3,M,-34.0,M,,0000*64
$GPGSA,A,3,02,05,12,06,09,,,,,,,,3.9,3.2,2.2*32
$GPRMC,231326.000,A,4219.1676,N,08313.9633,W,0.00,144.27,050619,,,A*7A
$GPGGA,231327.000,4219.1676,N,08313.9633,W,1,05,3.2,178.3,M,-34.0,M,,0000*65
$GPGSA,A,3,02,05,12,06,09,,,,,,,,3.9,3.2,2.2*32
$GPRMC,231327.000,A,4219.1676,N,08313.9633,W,0.00,144.27,050619,,,A*7B
$GPGGA,231328.000,4219.1676,N,08313.9633,W,1,05,3.2,178.3,M,-34.0,M,,0000*6A
$GPGSA,A,3,02,05,12,06,09,,,,,,,,3.9,3.2,2.2*32
$GPGSV,3,1,12,02,70,036,34,05,69,203,26,12,37,227,31,06,31,074,34*72
$GPGSV,3,2,12,09,19,051,36,28,53,257,,03,51,076,,08,19,107,*77
$GPGSV,3,3,12,15,16,317,,19,13,039,,25,09,245,,21,00,038,*79
$GPRMC,231328.000,A,4219.1676,N,08313.9633,W,0.00,144.27,050619,,,A*74
$GPGGA,231329.000,4219.1676,N,08313.9633,W,1,05,3.2,178.3,M,-34.0,M,,0000*6B
$GPGSA,A,3,02,05,12,06,09,,,,,,,,3.9,3.2,2.2*32
$GPRMC,231329.000,A,4219.1676,N,08313.9633,W,0.00,144.27,050619,,,A*75
$GPGGA,231330.000,4219.1676,N,08313.9633,W,1,05,3.2,178.3,M,-34.0,M,,0000*63
$GPGSA,A,3,02,05,12,06,09,,,,,,,,3.9,3.2,2.2*32
$GPRMC,231330.000,A,4219.1676,N,08313.9633,W,0.00,144.27,050619,,,A*7D
$GPGGA,231331.000,4219.1676,N,08313.9633,W,1,05,3.2,178.3,M,-34.0,M,,0000*62
$GPGSA,A,3,02,05,12,06,09,,,,,,,,3.9,3.2,2.2*32
$GPRMC,231331.000,A,4219.1676,N,08313.9633,W,0.00,144.27,050619,,,A*7C
$GPGGA,231332.000,4219.1676,N,080,M,,0000*61
$GPGSA,A,3,02,05,12,06,09,,,,,,,,3.9,3.2,2.2*32
$GPRMC,231332.000,A,4219.1676,N,08313.9633,W,0.00,144.27,050619,,,A*7F
$GPGGA,231333.000,4219.1676,N,08313.9633,W,1,05,3.2,178.3,M,-34.0,M,,0000*60
$GPGSA,A,3,02,05,12,06,09,,,,,,,,3.9,3.2,2.2*32
$GPGSV,3,1,12,02,70,036,34,05,69,203,27,12,37,227,31,06,31,074,33*74
$GPGSV,3,2,12,09,19,051,36,28,53,257,,03,51,076,,08,19,107,*77
$GPGSV,3,3,12,15,16,317,,19,13,039,,25,09,245,,21,00,038,*79
$GPRMC,231333.000,A,4219.1676,N,08313.9633,W,0.00,144.27,050619,,,A*7E
$GPGGA,231334.000,4219.1676,N,08313.9633,W,1,05,3.2,178.3,M,-34.0,M,,0000*67
$GPGSA,A,3,02,05,12,06,09,,,,,,,,3.9,3.2,2.2*32
$GPRMC,231334.000,A,4219.1676,N,08313.9633,W,0.00,144.27,050619,,,A*79
$GPGGA,231335.000,4219.1676,N,08313.9633,W,1,05,3.2,178.3,M,-34.0,M,,0000*66
$GPGSA,A,3,02,05,12,06,09,,,,,,,,3.9,3.2,2.2*32
$GPRMC,231335.000,A,4219.1676,N,08313.9633,W,0.00,144.27,050619,,,A*78
$GPGGA,231336.000,4219.1676,N,08313.9633,W,1,05,3.2,178.4,M,-34.0,M,,0000*62
$GPGSA,A,3,02,05,12,06,09,,,,,,,,3.9,3.2,2.2*32
$GPRMC,231336.000,A,4219.1676,N,08313.9633,W,0.00,144.27,050619,,,A*7B
$GPGGA,231337.000,4219.1676,N,08313.9633,W,1,05,3.2,178.4,M,-34.0,M,,0000*63
$GPGSA,A,3,02,05,12,06,09,,,,,,,,3.9,3.2,2.2*32
$GPRMC,231337.000,A,4219.1676,N,08313.9633,W,0.00,144.27,050619,,,A*7A
$GPGGA,231338.000,4219.1676,N,08313.9633,W,1,05,3.2,178.4,M,-34.0,M,,0000*6C
$GPGSA,A,3,02,05,12,06,09,,,,,,,,3.9,3.2,2.2*32
$GPGSV,3,1,12,02,70,036,34,05,69,203,27,12,37,227,30,06,31,074,33*75
$GPGSV,3,2,12,09,19,051,36,28,53,257,,03,51,076,,08,19,107,*77
$GPGSV,3,3,12,15,16,317,,19,13,039,,25,09,245,,21,00,038,*79
$GPRMC,231338.000,A,4219.1676,N,08313.9633,W,0.00,144.27,050619,,,A*75
$GPGGA,231339.000,4219.1676,N,08313.9633,W,1,05,3.2,178.4,M,-34.0,M,,0000*6D
$GPGSA,A,3,02,05,12,06,09,,,,,,,,3.9,3.2,2.2*32
$GPRMC,231339.000,A,4219.1676,N,08313.9633,W,0.00,144.27,050619,,,A*74
$GPGGA,231340.000,4219.1676,N,08313.9633,W,1,05,3.2,178.4,M,-34.0,M,,0000*63
$GPGSA,A,3,02,05,12,06,09,,,,,,,,3.9,3.2,2.2*32
$GPRMC,231340.000,A,4219.1676,N,08313.9633,W,0.00,144.27,050619,,,A*7A
$GPGGA,231341.000,4219.1676,N,08313.9633,W,1,05,3.2,178.4,M,-34.0,M,,0000*62
$GPGSA,A,3,02,05,12,06,09,,,,,,,,3.9,3.2,2.2*32
$GPRMC,231341.000,A,4219.1676,N,08313.9633,W,0.00,144.27,050619,,,A*7B
$GPGGA,231342.000,4219.1676,N,08313.9633,W,1,05,3.2,178.4,M,-34.0,M,,0000*61
$GPGSA,A,3,02,05,12,06,09,,,,,,,,3.9,3.2,2.2*32
$GPRMC,231342.000,A,4219.1676,N,08313.9633,W,0.00,144.27,050619,,,A*78
$GPGGA,231343.000,4219.1676,N,08313.9633,W,1,05,3.2,178.4,M,-34.0,M,,0000*60
$GPGSA,A,3,02,05,12,06,09,,,,,,,,3.9,3.2,2.2*32
$GPGSV,3,1,12,02,70,036,34,05,69,203,27,12,37,227,30,06,31,074,33*75
$GPGSV,3,2,12,09,19,051,36,28,53,257,,03,51,076,,08,19,107,*77
$GPGSV,3,3,12,15,16,317,,19,13,039,,25,09,245,,21,00,038,*79
$GPRMC,231343.000,A,4219.1676,N,08313.9633,W,0.00,144.27,050619,,,A*79
$GPGGA,231344.000,4219.1676,N,08313.9633,W,1,05,3.2,178.4,M,-34.0,M,,0000*67
$GPGSA,A,3,02,05,12,06,09,,,,,,,,3.9,3.2,2.2*32
$GPRMC,231344.000,A,4219.1676,N,08313.9633,W,0.00,144.27,050619,,,A*7E
$GPGGA,231345.000,4219.1676,N,08313.9633,W,1,05,3.2,178.4,M,-34.0,M,,0000*66
$GPGSA,A,3,02,05,12,06,09,,,,,,,,3.9,3.2,2.2*32
$GPRMC,231345.000,A,4219.1676,N,08313.9633,W,0.00,144.27,050619,,,A*7F
$GPGGA,231346.000,4219.1676,N,08313.9633,W,1,05,3.2,178.4,M,-34.0,M,,0000*65
$GPGSA,A,3,02,05,12,06,09,,,,,,,,3.9,3.2,2.2*32
$GPRMC,231346.000,A,4219.1676,N,08313.9633,W,0.00,144.27,050619,,,A*7C
$GPGGA,231347.000,4219.1676,N,08313.9633,W,1,05,3.2,178.4,M,-34.0,M,,0000*64
$GPGSA,A,3,02,05,12,06,09,,,,,,,,3.8,3.2,2.1*30
$GPRMC,231347.000,A,4219.1676,N,08313.9633,W,0.00,144.27,050619,,,A*7D
$GPGGA,231348.000,4219.1676,N,08313.9633,W,1,05,3.2,178.4,M,-34.0,M,,0000*6B
$GPGSA,A,3,02,05,12,06,09,,,,,,,,3.8,3.2,2.1*30
$GPGSV,3,1,12,02,70,036,34,05,69,203,27,12,37,227,30,06,31,074,32*74
$GPGSV,3,2,12,09,19,051,36,28,53,257,,03,51,076,,08,19,107,*77
$GPGSV,3,3,12,15,16,317,,19,13,039,,25,09,245,,21,00,038,*79
$GPRMC,231348.000,A,4219.1676,N,08313.9633,W,0.00,144.27,050619,,,A*72
$GPGGA,231349.000,4219.1676,N,08313.9633,W,1,05,3.2,178.4,M,-34.0,M,,0000*6A
$GPGSA,A,3,02,05,12,06,09,,,,,,,,3.8,3.2,2.1*30
$GPRMC,231349.000,A,4219.1676,N,08313.9633,W,0.00,144.27,050619,,,A*73
$GPGGA,231350.000,4219.1676,N,08313.9633,W,1,05,3.2,178.4,M,-34.0,M,,0000*62
$GPGSA,A,3,02,05,12,06,09,,,,,,,,3.8,3.2,2.1*30
$GPRMC,231350.000,A,4219.1676,N,08313.9633,W,0.00,144.27,050619,,,A*7B
$GPGGA,231351.000,4219.1676,N,08313.9633,W,1,05,3.2,178.4,M,-34.0,M,,0000*63
$GPGSA,A,3,02,05,12,06,09,,,,,,,,3.8,3.2,2.1*30
$GPRMC,231351.000,A,4219.1676,N,08313.9633,W,0.00,144.27,050619,,,A*7A
$GPGGA,231352.000,4219.1676,N,08313.9633,W,1,05,3.2,178.4,M,-34.0,M,,0000*60
$GPGSA,A,3,02,05,12,06,09,,,,,,,,3.8,3.2,2.1*30
$GPRMC,231352.000,A,4219.1676,N,08313.9633,W,0.00,144.27,050619,,,A*79
$GPGGA,231353.000,4219.1676,N,08313.9633,W,1,05,3.2,178.4,M,-34.0,M,,0000*61
$GPGSA,A,3,02,05,12,06,09,,,,,,,,3.8,3.2,2.1*30
$GPGSV,3,1,12,02,70,036,34,05,69,203,27,12,37,227,30,06,31,074,31*77
$GPGSV,3,2,12,09,19,051,36,28,53,257,,03,51,076,,08,19,107,*77
$GPGSV,3,3,12,15,16,317,,19,13,039,,25,09,245,,21,00,038,*79
$GPRMC,231353.000,A,4219.1676,N,08313.9633,W,0.00,144.27,050619,,,A*78
$GPGGA,231354.000,4219.1676,N,08313.9633,W,1,05,3.2,178.4,M,-34.0,M,,0000*66
$GPGSA,A,3,02,05,12,06,09,,,,,,,,3.8,3.2,2.1*30
$GPRMC,231354.000,A,4219.1676,N,08313.9633,W,0.00,144.27,050619,,,A*7F
$GPGGA,231355.000,4219.1676,N,08313.9633,W,1,05,3.2,178.4,M,-34.0,M,,0000*67
$GPGSA,A,3,02,05,12,06,09,,,,,,,,3.8,3.2,2.1*30
$GPRMC,231355.000,A,4219.1676,N,08313.9633,W,0.00,144.27,050619,,,A*7E
$GPGGA,231356.000,4219.1676,N,08313.9633,W,1,05,3.2,178.4,M,-34.0,M,,0000*64
$GPGSA,A,3,02,05,12,06,09,,,,,,,,3.8,3.2,2.1*30
$GPRMC,231356.000,A,4219.1676,N,08313.9633,W,0.00,144.27,050619,,,A*7D
$GPGGA,231357.000,4219.1676,N,08313.9633,W,1,05,3.2,178.4,M,-34.0,M,,0000*65
$GPGSA,A,3,02,05,12,06,09,,,,,,,,3.8,3.2,2.1*30
$GPRMC,231357.000,A,4219.1676,N,08313.9633,W,0.00,144.27,050619,,,A*7C
$GPGGA,231358.000,4219.1676,N,08313.9633,W,1,05,3.2,178.4,M,-34.0,M,,0000*6A
$GPGSA,A,3,02,05,12,06,09,,,,,,,,3.8,3.2,2.1*30
$GPGSV,3,1,12,02,70,036,34,05,69,203,28,12,37,227,29,06,31,074,31*70
$GPGSV,3,2,12,09,19,051,36,28,53,257,,03,51,076,,08,19,107,*77
$GPGSV,3,3,12,15,16,317,,19,13,039,,25,09,245,,21,00,038,*79
$GPRMC,231358.000,A,4219.1676,N,08313.9633,W,0.00,144.27,050619,,,A*73
$GPGGA,231359.000,4219.1676,N,08313.9633,W,1,05,3.2,178.4,M,-34.0,M,,0000*6B
$GPGSA,A,3,02,05,12,06,09,,,,,,,,3.8,3.2,2.1*30
$GPRMC,231359.000,A,4219.1676,N,08313.9633,W,0.00,144.27,050619,,,A*72
$GPGGA,231400.000,4219.1676,N,08313.9633,W,1,05,3.2,178.4,M,-34.0,M,,0000*60
$GPGSA,A,3,02,05,12,06,09,,,,,,,,3.8,3.2,2.1*30
$GPRMC,231400.000,A,4219.1676,N,08313.9633,W,0.00,144.27,050619,,,A*79
$GPGGA,231401.000,4219.1676,N,08313.9633,W,1,05,3.2,178.4,M,-34.0,M,,0000*61
$GPGSA,A,3,02,05,12,06,09,,,,,,,,3.8,3.2,2.1*30
$GPRMC,231401.000,A,4219.1676,N,08313.9633,W,0.00,144.27,050619,,,A*78
$GPGGA,231402.000,4219.1676,N,08313.9633,W,1,05,3.2,178.4,M,-34.0,M,,0000*62
$GPGSA,A,3,02,05,12,06,09,,,,,,,,3.8,3.2,2.1*30
$GPRMC,231402.000,A,4219.1676,N,08313.9633,W,0.00,144.27,050619,,,A*7B
$GPGGA,231403.000,4219.1676,N,08313.9633,W,1,05,3.2,178.4,M,-34.0,M,,0000*63
$GPGSA,A,3,02,05,12,06,09,,,,,,,,3.8,3.2,2.1*30
$GPGSV,3,1,12,02,70,036,33,05,69,203,27,12,37,227,30,06,31,074,30*71
$GPGSV,3,2,12,09,19,051,35,28,53,257,,03,51,076,,08,19,107,*74
$GPGSV,3,3,12,15,16,317,,19,13,039,,25,09,245,,21,00,038,*79
$GPRMC,231403.000,A,4219.1676,N,08313.9633,W,0.00,144.27,050619,,,A*7A
$GPGGA,231404.000,4219.1676,N,08313.9633,W,1,05,3.2,178.4,M,-34.0,M,,0000*64
$GPGSA,A,3,02,05,12,06,09,,,,,,,,3.8,3.2,2.1*30
$GPRMC,231404.000,A,4219.1676,N,08313.9633,W,0.00,144.27,050619,,,A*7D
$GPGGA,231405.000,4219.1676,N,08313.9633,W,1,05,3.2,178.4,M,-34.0,M,,0000*65
$GPGSA,A,3,02,05,12,06,09,,,,,,,,3.8,3.2,2.1*30
$GPRMC,231405.000,A,4219.1676,N,08313.9633,W,0.00,144.27,050619,,,A*7C
$GPGGA,231406.000,4219.1676,N,08313.9633,W,1,05,3.2,178.4,M,-34.0,M,,0000*66
$GPGSA,A,3,02,05,12,06,09,,,,,,,,3.8,3.2,2.1*30
$GPRMC,231406.000,A,4219.1676,N,08313.9633,W,0.00,144.27,050619,,,A*7F
$GPGGA,231407.000,4219.1676,N,08313.9633,W,1,05,3.2,178.4,M,-34.0,M,,0000*67
$GPGSA,A,3,02,05,12,06,09,,,,,,,,3.8,3.2,2.1*30
$GPRMC,231407.000,A,4219.1676,N,08313.9633,W,0.00,144.27,050619,,,A*7E
$GPGGA,231408.000,4219.1676,N,08313.9633,W,1,05,3.2,178.4,M,-34.0,M,,0000*68
$GPGSA,A,3,02,05,12,06,09,,,,,,,,3.8,3.2,2.1*30
$GPGSV,3,1,12,02,70,036,33,05,69,203,27,12,37,227,30,06,31,074,29*79
$GPGSV,3,2,12,09,19,051,35,28,53,257,,03,51,076,,08,19,107,*74
$GPGSV,3,3,12,15,16,317,,19,13,039,,25,09,245,,21,00,038,*79
$GPRMC,231408.000,A,4219.1676,N,08313.9633,W,0.00,144.27,050619,,,A*71
$GPGGA,231409.000,4219.1676,N,08313.9633,W,1,05,3.2,178.4,M,-34.0,M,,0000*69
$GPGSA,A,3,02,05,12,06,09,,,,,,,,3.8,3.2,2.1*30
$GPRMC,231409.000,A,4219.1676,N,08313.9633,W,0.00,144.27,050619,,,A*70
$GPGGA,231410.000,4219.1676,N,08313.9633,W,1,05,3.2,178.4,M,-34.0,M,,0000*61
$GPGSA,A,3,02,05,12,06,09,,,,,,,,3.8,3.2,2.1*30
$GPRMC,231410.000,A,4219.1676,N,08313.9633,W,0.00,144.27,050619,,,A*78
$GPGGA,231411.000,4219.1676,N,08313.9633,W,1,05,3.2,178.4,M,-34.0,M,,0000*60
$GPGSA,A,3,02,05,12,06,09,,,,,,,,3.8,3.2,2.1*30
$GPRMC,231411.000,A,4219.1676,N,08313.9633,W,0.00,144.27,050619,,,A*79
$GPGGA,231412.000,4219.1676,N,08313.9633,W,1,05,3.2,178.4,M,-34.0,M,,0000*63
$GPGSA,A,3,02,05,12,06,09,,,,,,,,3.8,3.2,2.1*30
$GPRMC,231412.000,A,4219.1676,N,08313.9633,W,0.00,144.27,050619,,,A*7A
$GPGGA,231413.000,4219.1676,N,08313.9633,W,1,05,3.2,178.4,M,-34.0,M,,0000*62
$GPGSA,A,3,02,05,12,06,09,,,,,,,,3.8,3.2,2.1*30
$GPGSV,3,1,12,02,70,036,33,05,69,203,27,12,37,227,30,06,31,074,29*79
$GPGSV,3,2,12,09,19,051,35,28,53,257,,03,51,076,,08,19,107,*74
$GPGSV,3,3,12,15,16,317,,19,13,039,,25,09,245,,21,00,038,*79
$GPRMC,231413.000,A,4219.1676,N,08313.9633,W,0.00,144.27,050619,,,A*7B
$GPGGA,231414.000,4219.1676,N,08313.9633,W,1,05,3.2,178.4,M,-34.0,M,,0000*65
$GPGSA,A,3,02,05,12,06,09,,,,,,,,3.8,3.2,2.1*30
$GPRMC,231414.000,A,4219.1676,N,08313.9633,W,0.00,144.27,050619,,,A*7C
$GPGGA,231415.000,4219.1676,N,08313.9633,W,1,05,3.2,178.4,M,-34.0,M,,0000*64
$GPGSA,A,3,02,05,12,06,09,,,,,,,,3.8,3.2,2.1*30
$GPRMC,231415.000,A,4219.1676,N,08313.9633,W,0.00,144.27,050619,,,A*7D
$GPGGA,231416.000,4219.1675,N,08313.9633,W,1,05,3.2,178.4,M,-34.0,M,,0000*64
$GPGSA,A,3,02,05,12,06,09,,,,,,,,3.8,3.2,2.1*30
$GPRMC,231416.000,A,4219.1675,N,08313.9633,W,0.00,144.27,050619,,,A*7D
$GPGGA,231417.000,4219.1675,N,08313.9633,W,1,05,3.2,178.4,M,-34.0,M,,0000*65
$GPGSA,A,3,02,05,12,06,09,,,,,,,,3.8,3.2,2.1*30
$GPRMC,231417.000,A,4219.1675,N,08313.9633,W,0.00,144.27,050619,,,A*7C
$GPGGA,231418.000,4219.1675,N,08313.9633,W,1,05,3.2,178.4,M,-34.0,M,,0000*6A
$GPGSA,A,3,02,05,12,06,09,,,,,,,,3.8,3.2,2.1*30
$GPGSV,3,1,12,02,70,036,35,05,69,203,37,12,37,227,37,06,31,074,36*77
$GPGSV,3,2,12,09,19,051,38,28,53,257,,03,51,076,,08,19,107,*79
$GPGSV,3,3,12,15,16,317,,19,13,039,,25,09,245,,21,00,038,*79
$GPRMC,231418.000,A,4219.1675,N,08313.9633,W,0.00,144.27,050619,,,A*73
$GPGGA,231419.000,4219.1675,N,08313.9632,W,1,05,3.2,178.4,M,-34.0,M,,0000*6A
$GPGSA,A,3,02,05,12,06,09,,,,,,,,3.8,3.2,2.1*30
$GPRMC,231419.000,A,4219.1675,N,08313.9632,W,0.00,144.27,050619,,,A*73
$GPGGA,231420.000,4219.1675,N,08313.9632,W,1,05,3.2,178.4,M,-34.0,M,,0000*60
$GPGSA,A,3,02,05,12,06,09,,,,,,,,3.8,3.2,2.1*30
$GPRMC,231420.000,A,4219.1675,N,08313.9632,W,0.00,144.27,050619,,,A*79
$GPGGA,231421.000,4219.1675,N,08313.9632,W,1,05,3.2,178.5,M,-34.0,M,,0000*60
$GPGSA,A,3,02,05,12,06,09,,,,,,,,3.8,3.2,2.1*30
$GPRMC,231421.000,A,4219.1675,N,08313.9632,W,0.00,144.27,050619,,,A*78
$GPGGA,231422.000,4219.1675,N,08313.9632,W,1,05,3.2,178.5,M,-34.0,M,,0000*63
$GPGSA,A,3,02,05,12,06,09,,,,,,,,3.8,3.2,2.1*30
$GPRMC,231422.000,A,4219.1675,N,08313.9632,W,0.00,144.27,050619,,,A*7B
$GPGGA,231423.000,4219.1675,N,08313.9632,W,1,05,3.2,178.5,M,-34.0,M,,0000*62
$GPGSA,A,3,02,05,12,06,09,,,,,,,,3.8,3.2,2.1*30
$GPGSV,3,1,12,02,70,036,37,05,69,203,38,12,37,227,36,06,31,074,36*7B
$GPGSV,3,2,12,09,19,051,40,28,53,257,,03,51,076,,08,19,107,*76
$GPGSV,3,3,12,15,16,317,,19,13,039,,25,09,245,,21,00,038,*79
$GPRMC,231423.000,A,4219.1675,N,08313.9632,W,0.00,144.27,050619,,,A*7A
$GPGGA,231424.000,4219.1675,N,08313.9632,W,1,05,3.2,178.5,M,-34.0,M,,0000*65
$GPGSA,A,3,02,05,12,06,09,,,,,,,,3.8,3.2,2.1*30
$GPRMC,231424.000,A,4219.1675,N,08313.9632,W,0.00,144.27,050619,,,A*7D
$GPGGA,231425.000,4219.1674,N,08313.9631,W,1,05,3.2,178.7,M,-34.0,M,,0000*64
$GPGSA,A,3,02,05,12,06,09,,,,,,,,3.8,3.2,2.1*30
$GPRMC,231425.000,A,4219.1674,N,08313.9631,W,0.29,144.27,050619,,,A*75
$GPGGA,231426.000,4219.1674,N,08313.9631,W,1,05,3.2,178.7,M,-34.0,M,,0000*67
$GPGSA,A,3,02,05,12,06,09,,,,,,,,3.8,3.2,2.1*30
$GPRMC,231426.000,A,4219.1674,N,08313.9631,W,0.01,144.27,050619,,,A*7C
$GPGGA,231427.000,4219.1674,N,08313.9631,W,1,05,3.2,178.7,M,-34.0,M,,0000*66
$GPGSA,A,3,02,05,12,06,09,,,,,,,,3.8,3.2,2.1*30
$GPRMC,231427.000,A,4219.1674,N,08313.9631,W,0.00,144.27,050619,,,A*7C
$GPGGA,231428.000,4219.1674,N,08313.9631,W,1,05,3.2,178.7,M,-34.0,M,,0000*69
$GPGSA,A,3,02,05,12,06,09,,,,,,,,3.8,3.2,2.1*30
$GPGSV,3,1,12,02,70,036,31,05,69,203,27,12,37,227,35,06,31,074,28*7F
$GPGSV,3,2,12,09,19,051,39,28,53,257,,03,51,076,,08,19,107,*78
$GPGSV,3,3,12,15,16,317,,19,13,039,,25,09,245,,21,00,038,*79
$GPRMC,231428.000,A,4219.1674,N,08313.9631,W,0.00,144.27,050619,,,A*73
$GPGGA,231429.000,4219.1674,N,08313.9631,W,1,05,3.2,178.7,M,-34.0,M,,0000*68
$GPGSA,A,3,02,05,12,06,09,,,,,,,,3.8,3.2,2.1*30
$GPRMC,231429.000,A,4219.1674,N,08313.9631,W,0.00,144.27,050619,,,A*72
$GPGGA,231430.000,4219.1674,N,08313.9631,W,1,05,3.2,178.7,M,-34.0,M,,0000*60
$GPGSA,A,3,02,05,12,06,09,,,,,,,,3.8,3.2,2.1*30
$GPRMC,231430.000,A,4219.1674,N,08313.9631,W,0.00,144.27,050619,,,A*7A
$GPGGA,231431.000,4219.1674,N,08313.9631,W,1,05,3.2,178.7,M,-34.0,M,,0000*61
$GPGSA,A,3,02,05,12,06,09,,,,,,,,3.8,3.2,2.1*30
$GPRMC,231431.000,A,4219.1674,N,08313.9631,W,0.00,144.27,050619,,,A*7B
$GPGGA,231432.000,4219.1674,N,08313.9631,W,1,05,3.2,178.7,M,-34.0,M,,0000*62
$GPGSA,A,3,02,05,12,06,09,,,,,,,,3.8,3.2,2.1*30
$GPRMC,231432.000,A,4219.1674,N,08313.9631,W,0.00,144.27,050619,,,A*78
$GPGGA,231433.000,4219.1674,N,08313.9631,W,1,05,3.2,178.7,M,-34.0,M,,0000*63
$GPGSA,A,3,02,05,12,06,09,,,,,,,,3.8,3.2,2.1*30
$GPGSV,3,1,12,02,70,036,31,05,69,203,26,12,37,227,34,06,31,074,28*7F
$GPGSV,3,2,12,09,19,051,37,28,53,257,,03,51,076,,08,19,107,*76
$GPGSV,3,3,12,15,16,317,,19,13,039,,25,09,245,,21,00,038,*79
$GPRMC,231433.000,A,4219.1674,N,08313.9631,W,0.00,144.27,050619,,,A*79
$GPGGA,231434.000,4219.1674,N,08313.9631,W,1,05,3.2,178.7,M,-34.0,M,,0000*64
$GPGSA,A,3,02,05,12,06,09,,,,,,,,3.8,3.2,2.1*30
$GPRMC,231434.000,A,4219.1674,N,08313.9631,W,0.00,144.27,050619,,,A*7E
$GPGGA,231435.000,4219.1674,N,08313.9631,W,1,05,3.2,178.7,M,-34.0,M,,0000*65
$GPGSA,A,3,02,05,12,06,09,,,,,,,,3.8,3.2,2.1*30
$GPRMC,231435.000,A,4219.1674,N,08313.9631,W,0.00,144.27,050619,,,A*7F
$GPGGA,231436.000,4219.1674,N,08313.9631,W,1,05,3.2,178.7,M,-34.0,M,,0000*66
$GPGSA,A,3,02,05,12,06,09,,,,,,,,3.8,3.2,2.1*30
$GPRMC,231436.000,A,4219.1674,N,08313.9631,W,0.00,144.27,050619,,,A*7C
$GPGGA,231437.000,4219.1674,N,08313.9631,W,1,05,3.2,178.7,M,-34.0,M,,0000*67
$GPGSA,A,3,02,05,12,06,09,,,,,,,,3.8,3.2,2.1*30
$GPRMC,231437.000,A,4219.1674,N,08313.9631,W,0.00,144.27,050619,,,A*7D
$GPGGA,231438.000,4219.1674,N,08313.9631,W,1,05,3.2,178.7,M,-34.0,M,,0000*68
$GPGSA,A,3,02,05,12,06,09,,,,,,,,3.8,3.2,2.1*30
$GPGSV,3,1,12,02,70,036,32,05,69,203,26,12,37,227,33,06,31,074,29*7A
$GPGSV,3,2,12,09,19,051,37,28,53,257,,03,51,076,,08,19,107,*76
$GPGSV,3,3,12,15,16,317,,19,13,039,,25,09,245,,21,00,038,*79
$GPRMC,231438.000,A,4219.1674,N,08313.9631,W,0.00,144.27,050619,,,A*72
$GPGGA,231439.000,4219.1674,N,08313.9631,W,1,05,3.2,178.7,M,-34.0,M,,0000*69
$GPGSA,A,3,02,05,12,06,09,,,,,,,,3.8,3.2,2.1*30
$GPRMC,231439.000,A,4219.1674,N,08313.9631,W,0.00,144.27,050619,,,A*73
$GPGGA,231440.000,4219.1674,N,08313.9631,W,1,05,3.2,178.7,M,-34.0,M,,0000*67
$GPGSA,A,3,02,05,12,06,09,,,,,,,,3.8,3.2,2.1*30
$GPRMC,231440.000,A,4219.1674,N,08313.9631,W,0.00,144.27,050619,,,A*7D
$GPGGA,231441.000,4219.1674,N,08313.9631,W,1,05,3.2,178.7,M,-34.0,M,,0000*66
$GPGSA,A,3,02,05,12,06,09,,,,,,,,3.8,3.2,2.1*30
$GPRMC,231441.000,A,4219.1674,N,08313.9631,W,0.00,144.27,050619,,,A*7C
$GPGGA,231442.000,4219.1674,N,08313.9631,W,1,05,3.2,178.8,M,-34.0,M,,0000*6A
$GPGSA,A,3,02,05,12,06,09,,,,,,,,3.8,3.2,2.1*30
$GPRMC,231442.000,A,4219.1674,N,08313.9631,W,0.00,144.27,050619,,,A*7F
$GPGGA,231443.000,4219.1674,N,08313.9631,W,1,05,3.2,178.8,M,-34.0,M,,0000*6B
$GPGSA,A,3,02,05,12,06,09,,,,,,,,3.8,3.2,2.1*30
$GPGSV,3,1,12,02,70,036,32,05,69,203,26,12,37,227,33,06,31,074,29*7A
$GPGSV,3,2,12,09,19,051,37,28,53,257,,03,51,076,,08,19,107,*76
$GPGSV,3,3,12,15,16,317,,19,13,039,,25,09,245,,21,00,038,*79
$GPRMC,231443.000,A,4219.1674,N,08313.9631,W,0.00,144.27,050619,,,A*7E
$GPGGA,231444.000,4219.1674,N,08313.9631,W,1,05,3.2,178.8,M,-34.0,M,,0000*6C
$GPGSA,A,3,02,05,12,06,09,,,,,,,,3.8,3.2,2.1*30
$GPRMC,231444.000,A,4219.1674,N,08313.9631,W,0.00,144.27,050619,,,A*79
$GPGGA,231445.000,4219.1674,N,08313.9631,W,1,05,3.2,178.7,M,-34.0,M,,0000*62
$GPGSA,A,3,02,05,12,06,09,,,,,,,,3.8,3.2,2.1*30
$GPRMC,231445.000,A,4219.1674,N,08313.9631,W,0.00,144.27,050619,,,A*78
$GPGGA,231446.000,4219.1674,N,08313.9631,W,1,05,3.2,178.7,M,-34.0,M,,0000*61
$GPGSA,A,3,02,05,12,06,09,,,,,,,,3.8,3.2,2.1*30
$GPRMC,231446.000,A,4219.1674,N,08313.9631,W,0.00,144.27,050619,,,A*7B
$GPGGA,231447.000,4219.1674,N,08313.9631,W,1,05,3.2,178.7,M,-34.0,M,,0000*60
$GPGSA,A,3,02,05,12,06,09,,,,,,,,3.8,3.2,2.1*30
$GPRMC,231447.000,A,4219.1674,N,08313.9631,W,0.00,144.27,050619,,,A*7A
$GPGGA,231448.000,4219.1674,N,08313.9631,W,1,05,3.2,178.7,M,-34.0,M,,0000*6F
$GPGSA,A,3,02,05,12,06,09,,,,,,,,3.8,3.2,2.1*30
$GPGSV,3,1,12,02,70,036,32,05,69,203,27,12,37,227,33,06,31,074,30*73
$GPGSV,3,2,12,09,19,051,36,28,53,257,,03,51,076,,08,19,107,*77
$GPGSV,3,3,12,15,16,317,,19,13,039,,25,09,245,,21,00,038,*79
$GPRMC,231448.000,A,4219.1674,N,08313.9631,W,0.00,144.27,050619,,,A*75
$GPGGA,231449.000,4219.1674,N,08313.9631,W,1,05,3.2,178.8,M,-34.0,M,,0000*61
$GPGSA,A,3,02,05,12,06,09,,,,,,,,3.8,3.2,2.1*30
$GPRMC,231449.000,A,4219.1674,N,08313.9631,W,0.00,144.27,050619,,,A*74
$GPGGA,231450.000,4219.1674,N,08313.9631,W,1,05,3.2,178.8,M,-34.0,M,,0000*69
$GPGSA,A,3,02,05,12,06,09,,,,,,,,3.8,3.2,2.1*30
$GPRMC,231450.000,A,4219.1674,N,08313.9631,W,0.00,144.27,050619,,,A*7C
$GPGGA,231451.000,4219.1674,N,08313.9631,W,1,05,3.2,178.8,M,-34.0,M,,0000*68
$GPGSA,A,3,02,05,12,06,09,,,,,,,,3.8,3.2,2.1*30
$GPRMC,231451.000,A,4219.1674,N,08313.9631,W,0.00,144.27,050619,,,A*7D
$GPGGA,231452.000,4219.1674,N,08313.9631,W,1,05,3.2,178.8,M,-34.0,M,,0000*6B
$GPGSA,A,3,02,05,12,06,09,,,,,,,,3.8,3.2,2.1*30
$GPRMC,231452.000,A,4219.1674,N,08313.9631,W,0.00,144.27,050619,,,A*7E
$GPGGA,231453.000,4219.1674,N,08313.9631,W,1,05,3.2,178.8,M,-34.0,M,,0000*6A
$GPGSA,A,3,02,05,12,06,09,,,,,,,,3.8,3.2,2.1*30
$GPGSV,3,1,12,02,70,036,32,05,69,203,27,12,37,227,33,06,31,074,31*72
$GPGSV,3,2,12,09,19,051,36,28,53,257,,03,51,076,,08,19,107,*77
$GPGSV,3,3,12,15,16,317,,19,13,039,,25,09,245,,21,00,038,*79
$GPRMC,231453.000,A,4219.1674,N,08313.9631,W,0.00,144.27,050619,,,A*7F
$GPGGA,231454.000,4219.1674,N,08313.9631,W,1,05,3.2,178.8,M,-34.2,06,09,,,,,,,,3.8,3.2,2.1*30
$GPRMC,231454.000,A,4219.1674,N,08313.9631,W,0.00,144.27,050619,,,A*78
$GPGGA,231455.000,4219.1673,N,08313.9631,W,1,05,3.2,178.8,M,-34.0,M,,0000*6B
$GPGSA,A,3,02,05,12,06,09,,,,,,,,3.8,3.2,2.1*30
$GPRMC,231455.000,A,4219.1673,N,08313.9631,W,0.00,144.27,050619,,,A*7E
$GPGGA,231456.000,4219.1673,N,08313.9631,W,1,05,3.2,178.8,M,-34.0,M,,0000*68
$GPGSA,A,3,02,05,12,06,09,,,,,,,,3.8,3.2,2.1*30
$GPRMC,231456.000,A,4219.1673,N,08313.9631,W,0.00,144.27,050619,,,A*7D
$GPGGA,231457.000,4219.1673,N,08313.9631,W,1,05,3.2,178.8,M,-34.0,M,,0000*69
$GPGSA,A,3,02,05,12,06,09,,,,,,,,3.8,3.2,2.1*30
$GPRMC,231457.000,A,4219.1673,N,08313.9631,W,0.00,144.27,050619,,,A*7C
$GPGGA,231458.000,4219.1673,N,08313.9631,W,1,05,3.2,178.8,M,-34.0,M,,0000*66
$GPGSA,A,3,02,05,12,06,09,,,,,,,,3.8,3.2,2.1*30
$203,26,12,37,227,33,06,31,074,31*70
$GPGSV,3,2,12,09,19,051,36,28,53,257,,03,51,076,,08,19,107,*77
$GPGSV,3,3,12,15,16,317,,19,13,039,,25,09,245,,21,00,038,*79
$GPRMC,231458.000,A,4219.1673,N,08313.9631,W,0.00,144.27,050619,,,A*73
$GPGGA,231459.000,4219.1673,N,08313.9631,W,1,05,3.2,178.8,M,-34.0,M,,0000*67
$GPGSA,A,3,02,05,12,06,09,,,,,,,,3.8,3.2,2.1*30
$GPRMC,231459.000,A,4219.1673,N,08313.9631,W,0.00,144.27,050619,,,A*72
$GPGGA,231500.000,4219.1673,N,08313.9631,W,1,05,3.2,178.8,M,-34.0,M,,0000*6A
$GPGSA,A,3,02,05,12,06,09,,,,,,,,3.8,3.2,2.1*30
$GPRMC,231500.000,A,4219.1673,N,0,A*7F
$GPGGA,231501.000,4219.1673,N,08313.9631,W,1,05,3.2,178.8,M,-34.0,M,,0000*6B
$GPGSA,A,3,02,05,12,06,09,,,,,,,,3.8,3.2,2.1*30
$GPRMC,231501.000,A,4219.1673,N,08313.9631,W,0.00,144.27,050619,,,A*7E
$GPGGA,231502.000,4219.1673,N,08313.9631,W,1,05,3.2,178.8,M,-34.0,M,,0000*68
$GPGSA,A,3,05,02,12,06,09,,,,,,,,3.8,3.2,2.1*30
$GPRMC,231502.000,A,4219.1673,N,08313.9631,W,0.00,144.27,050619,,,A*7D
$GPGGA,231503.000,4219.1673,N,08313.9631,W,1,05,3.2,178.8,M,-34.0,M,,0000*69
$GPGSA,A,3,05,02,12,06,09,,,,,,,,3.8,3.2,2.1*30
$GPGSV,3,1,12,05,70,203,27,02,69,039,31,12,35,226,32,06,30,075,31*7C
$GPGSV,3,2,12,09,19,050,36,28,54,259,,03,50,074,,08,18,108,*72
$GPGSV,3,3,12,15,17,317,,19,12,038,,25,10,246,,21,00,036,*7D
$GPRMC,231503.000,A,4219.1673,N,08313.9631,W,0.00,144.27,050619,,,A*7C
$GPGGA,231504.000,4219.1673,N,08313.9631,W,1,05,3.2,178.8,M,-34.0,M,,0000*6E
$GPGSA,A,3,05,02,12,06,09,,,,,,,,3.8,3.2,2.1*30
$GPRMC,231504.000,A,4219.1673,N,08313.9631,W,0.00,144.27,050619,,,A*7B
$GPGGA,231505.000,4219.1673,N,08313.9631,W,1,05,3.2,178.8,M,-34.0,M,,0000*6F
$GPGSA,A,3,05,02,12,06,09,,,,,,,,3.8,3.2,2.1*30
$GPRMC,231505.000,A,4219.1673,N,08313.9631,W,0.00,144.27,050619,,,A*7A
$GPGGA,231506.000,4219.1673,N,08313.9631,W,1,05,3.2,178.8,M,-34.0,M,,0000*6C
$GPGSA,A,3,05,02,12,06,09,,,,,,,,3.8,3.2,2.1*30
$GPRMC,231506.000,A,4219.1673,N,08313.9631,W,0.00,144.27,050619,,,A*79
$GPGGA,231507.000,4219.1673,N,08313.9631,W,1,05,3.2,178.8,M,-34.0,M,,0000*6D
$GPGSA,A,3,05,02,12,06,09,,,,,,,,3.8,3.2,2.1*30
$GPRMC,231507.000,A,4219.1673,N,08313.9631,W,0.00,144.27,050619,,,A*78
$GPGGA,231508.000,4219.1673,N,08313.9631,W,1,05,3.2,178.8,M,-34.0,M,,0000*62
$GPGSA,A,3,05,02,12,06,09,,,,,,,,3.8,3.2,2.1*30
$GPGSV,3,1,12,05,70,203,37,02,69,039,35,12,35,226,34,06,30,075,37*79
$GPGSV,3,2,12,09,19,050,36,28,54,259,,03,50,074,,08,18,108,*72
$GPGSV,3,3,12,15,17,317,,19,12,038,,25,10,246,,21,00,036,*7D
$GPRMC,231508.000,A,4219.1673,N,08313.9631,W,0.00,144.27,050619,,,A*77
$GPGGA,231509.000,4219.1673,N,08313.9631,W,1,05,3.2,178.8,M,-34.0,M,,0000*63
$GPGSA,A,3,05,02,12,06,09,,,,,,,,3.8,3.2,2.1*30
$GPRMC,231509.000,A,4219.1673,N,08313.9631,W,0.00,144.27,050619,,,A*76
$GPGGA,231510.000,4219.1673,N,08313.9631,W,1,05,3.2,178.8,M,-34.0,M,,0000*6B
$GPGSA,A,3,05,02,12,06,09,,,,,,,,3.8,3.2,2.1*30
$GPRMC,231510.000,A,4219.1673,N,08313.9631,W,0.00,144.27,050619,,,A*7E
$GPGGA,231511.000,4219.1673,N,08313.9631,W,1,05,3.2,178.8,M,-34.0,M,,0000*6A
$GPGSA,A,3,05,02,12,06,09,,,,,,,,3.8,3.2,2.1*30
$GPRMC,231511.000,A,4219.1673,N,08313.9631,W,0.00,144.27,050619,,,A*7F
$GPGGA,231512.000,4219.1673,N,08313.9631,W,1,05,3.2,178.8,M,-34.0,M,,0000*69
$GPGSA,A,3,05,02,12,06,09,,,,,,,,3.8,3.2,2.1*30
$GPRMC,231512.000,A,4219.1673,N,08313.9631,W,0.00,144.27,050619,,,A*7C
$GPGGA,231513.000,4219.1673,N,08313.9631,W,1,05,3.2,178.8,M,-34.0,M,,0000*68
$GPGSA,A,3,05,02,12,06,09,,,,,,,,3.8,3.2,2.1*30
$GPGSV,3,1,12,05,70,203,37,02,69,039,35,12,35,226,34,06,30,075,37*79
$GPGSV,3,2,12,09,19,050,35,28,54,259,,03,50,074,,08,18,108,*71
$GPGSV,3,3,12,15,17,317,,19,12,038,,25,10,246,,21,00,036,*7D
$GPRMC,231513.000,A,4219.1673,N,08313.9631,W,0.00,144.27,050619,,,A*7D
$GPGGA,231514.000,4219.1673,N,08313.9631,W,1,05,3.2,178.8,M,-34.0,M,,0000*6F
$GPGSA,A,3,05,02,12,06,09,,,,,,,,3.8,3.2,2.1*30
$GPRMC,231514.000,A,4219.1673,N,08313.9631,W,0.00,144.27,050619,,,A*7A
$GPGGA,231515.000,4219.1673,N,08313.9631,W,1,05,3.2,178.8,M,-34.0,M,,0000*6E
$GPGSA,A,3,05,02,12,06,09,,,,,,,,3.8,3.2,2.1*30
$GPRMC,231515.000,A,4219.1673,N,08313.9631,W,0.00,144.27,050619,,,A*7B
$GPGGA,231516.000,4219.1673,N,08313.9631,W,1,05,3.2,178.8,M,-34.0,M,,0000*6D
$GPGSA,A,3,05,02,12,06,09,,,,,,,,3.8,3.2,2.1*30
$GPRMC,231516.000,A,4219.1673,N,08313.9631,W,0.00,144.27,050619,,,A*78
$GPGGA,231517.000,4219.1673,N,08313.9631,W,1,05,3.2,178.8,M,-34.0,M,,0000*6C
$GPGSA,A,3,05,02,12,06,09,,,,,,,,3.8,3.2,2.1*30
$GPRMC,231517.000,A,4219.1673,N,08313.9631,W,0.00,144.27,050619,,,A*79
$GPGGA,231518.000,4219.1673,N,08313.9631,W,1,05,3.2,178.8,M,-34.0,M,,0000*63
$GPGSA,A,3,05,02,12,06,09,,,,,,,,3.8,3.2,2.1*30
$GPGSV,3,1,12,05,70,203,38,02,69,039,36,12,35,226,35,06,30,075,38*7B
$GPGSV,3,2,12,09,19,050,36,28,54,259,,03,50,074,,08,18,108,*72
$GPGSV,3,3,12,15,17,317,,19,12,038,,25,10,246,,21,00,036,*7D
$GPRMC,231518.000,A,4219.1673,N,08313.9631,W,0.00,144.27,050619,,,A*76
$GPGGA,231519.000,4219.1673,N,08313.9631,W,1,05,3.2,178.8,M,-34.0,M,,0000*62
$GPGSA,A,3,05,02,12,06,09,,,,,,,,3.8,3.2,2.1*30
$GPRMC,231519.000,A,4219.1673,N,08313.9631,W,0.00,144.27,050619,,,A*77
$GPGGA,231520.000,4219.1673,N,08313.9631,W,1,05,3.2,178.9,M,-34.0,M,,0000*69
$GPGSA,A,3,05,02,12,06,09,,,,,,,,3.8,3.2,2.1*30
$GPRMC,231520.000,A,4219.1673,N,08313.9631,W,0.00,144.27,050619,,,A*7D
$GPGGA,231521.000,4219.1673,N,08313.9631,W,1,05,3.2,178.9,M,-34.0,M,,0000*68
$GPGSA,A,3,05,02,12,06,09,,,,,,,,3.8,3.2,2.1*30
$GPRMC,231521.000,A,4219.1673,N,08313.9631,W,0.00,144.27,050619,,,A*7C
$GPGGA,231522.000,4219.1673,N,08313.9630,W,1,05,3.2,178.9,M,-34.0,M,,0000*6A
$GPGSA,A,3,05,02,12,06,09,,,,,,,,3.8,3.2,2.1*30
$GPRMC,231522.000,A,4219.1673,N,08313.9630,W,0.00,144.27,050619,,,A*7E
$GPGGA,231523.000,4219.1673,N,08313.9630,W,1,05,3.2,178.9,M,-34.0,M,,0000*6B
$GPGSA,A,3,05,02,12,06,09,,,,,,,,3.8,3.2,2.1*30
$GPGSV,3,1,12,05,70,203,38,02,69,039,36,12,35,226,36,06,30,075,38*78
$GPGSV,3,2,12,09,19,050,36,28,54,259,,03,50,074,,08,18,108,*72
$GPGSV,3,3,12,15,17,317,,19,12,038,,25,10,246,,21,00,036,*7D
$GPRMC,231523.000,A,4219.1673,N,08313.9630,W,0.00,144.27,050619,,,A*7F
$GPGGA,231524.000,4219.1672,N,08313.9630,W,1,05,3.2,178.9,M,-34.0,M,,0000*6D
$GPGSA,A,3,05,02,12,06,09,,,,,,,,3.8,3.2,2.1*30
$GPRMC,231524.000,A,4219.1672,N,08313.9630,W,0.00,144.27,050619,,,A*79
$GPGGA,231525.000,4219.1672,N,08313.9630,W,1,05,3.2,178.9,M,-34.0,M,,0000*6C
$GPGSA,A,3,05,02,12,06,09,,,,,,,,3.8,3.2,2.1*30
$GPRMC,231525.000,A,4219.1672,N,08313.9630,W,0.00,144.27,050619,,,A*78
$GPGGA,231526.000,4219.1672,N,08313.9630,W,1,05,3.2,178.9,M,-34.0,M,,0000*6F
$GPGSA,A,3,05,02,12,06,09,,,,,,,,3.8,3.2,2.1*30
$GPRMC,231526.000,A,4219.1672,N,08313.9630,W,0.00,144.27,050619,,,A*7B
$GPGGA,231527.000,4219.1672,N,08313.9630,W,1,05,3.2,178.9,M,-34.0,M,,0000*6E
$GPGSA,A,3,05,02,12,06,09,,,,,,,,3.8,3.2,2.1*30
$GPRMC,231527.000,A,4219.1672,N,08313.9630,W,0.00,144.27,050619,,,A*7A
$GPGGA,231528.000,4219.1672,N,08313.9630,W,1,05,3.2,178.9,M,-34.0,M,,0000*61
$GPGSA,A,3,05,02,12,06,09,,,,,,,,3.8,3.2,2.1*30
$GPGSV,3,1,12,05,70,203,38,02,69,039,36,12,35,226,37,06,30,075,38*79
$GPGSV,3,2,12,09,19,050,36,28,54,259,,03,50,074,,08,18,108,*72
$GPGSV,3,3,12,15,17,317,,19,12,038,,25,10,246,,21,00,036,*7D
$GPRMC,231528.000,A,4219.1672,N,08313.9630,W,0.00,144.27,050619,,,A*75
$GPGGA,231529.000,4219.1672,N,08313.9630,W,1,05,3.2,178.9,M,-34.0,M,,0000*60
$GPGSA,A,3,05,02,12,06,09,,,,,,,,3.8,3.2,2.1*30
$GPRMC,231529.000,A,4219.1672,N,08313.9630,W,0.00,144.27,050619,,,A*74
$GPGGA,231530.000,4219.1672,N,08313.9630,W,1,05,3.2,178.9,M,-34.0,M,,0000*68
$GPGSA,A,3,05,02,12,06,09,,,,,,,,3.8,3.2,2.1*30
$GPRMC,231530.000,A,4219.1672,N,08313.9630,W,0.00,144.27,050619,,,A*7C
$GPGGA,231531.000,4219.1672,N,08313.9630,W,1,05,3.2,178.9,M,-34.0,M,,0000*69
$GPGSA,A,3,05,02,12,06,09,,,,,,,,3.8,3.2,2.1*30
$GPRMC,231531.000,A,4219.1672,N,08313.9630,W,0.00,144.27,050619,,,A*7D
$GPGGA,231532.000,4219.1672,N,08313.9630,W,1,05,3.1,178.9,M,-34.0,M,,0000*69
$GPGSA,A,3,05,02,12,06,09,,,,,,,,3.8,3.1,2.1*33
$GPRMC,231532.000,A,4219.1672,N,08313.9630,W,0.00,144.27,050619,,,A*7E
$GPGGA,231533.000,4219.1672,N,08313.9630,W,1,05,3.1,178.9,M,-34.0,M,,0000*68
$GPGSA,A,3,05,02,12,06,09,,,,,,,,3.8,3.1,2.1*33
$GPGSV,3,1,12,05,70,203,38,02,69,039,36,12,35,226,37,06,30,075,38*79
$GPGSV,3,2,12,09,19,050,36,28,54,259,,03,50,074,,08,18,108,*72
$GPGSV,3,3,12,15,17,317,,19,12,038,,25,10,246,,21,00,036,*7D
$GPRMC,231533.000,A,4219.1672,N,08313.9630,W,0.00,144.27,050619,,,A*7F
$GPGGA,231534.000,4219.1672,N,08313.9630,W,1,05,3.1,178.9,M,-34.0,M,,0000*6F
$GPGSA,A,3,05,02,12,06,09,,,,,,,,3.8,3.1,2.1*33
$GPRMC,231534.000,A,4219.1672,N,08313.9630,W,0.00,144.27,050619,,,A*78
$GPGGA,231535.000,4219.1672,N,08313.9630,W,1,05,3.1,178.9,M,-34.0,M,,0000*6E
$GPGSA,A,3,05,02,12,06,09,,,,,,,,3.8,3.1,2.1*33
$GPRMC,231535.000,A,4219.1672,N,08313.9630,W,0.00,144.27,050619,,,A*79
$GPGGA,231536.000,4219.1672,N,08313.9630,W,1,05,3.1,178.9,M,-34.0,M,,0000*6D
$GPGSA,A,3,05,02,12,06,09,,,,,,,,3.8,3.1,2.1*33
$GPRMC,231536.000,A,4219.1672,N,08313.9630,W,0.00,144.27,050619,,,A*7A
$GPGGA,231537.000,4219.1672,N,08313.9630,W,1,05,3.1,179.0,M,-34.0,M,,0000*64
$GPGSA,A,3,05,02,12,06,09,,,,,,,,3.8,3.1,2.1*33
$GPRMC,231537.000,A,4219.1672,N,08313.9630,W,0.00,144.27,050619,,,A*7B
$GPGGA,231538.000,4219.1672,N,08313.9630,W,1,05,3.1,179.0,M,-34.0,M,,0000*6B
$GPGSA,A,3,05,02,12,06,09,,,,,,,,3.8,3.1,2.1*33
$GPGSV,3,1,12,05,70,203,39,02,69,039,36,12,35,226,37,06,30,075,37*77
$GPGSV,3,2,12,09,19,050,36,28,54,259,,03,50,074,,08,18,108,*72
$GPGSV,3,3,12,15,17,317,,19,12,038,,25,10,246,,21,00,036,*7D
$GPRMC,231538.000,A,4219.1672,N,08313.9630,W,0.00,144.27,050619,,,A*74
$GPGGA,231539.000,4219.1672,N,08313.9630,W,1,05,3.1,179.0,M,-34.0,M,,0000*6A
$GPGSA,A,3,05,02,12,06,09,,,,,,,,3.8,3.1,2.1*33
$GPRMC,231539.000,A,4219.1672,N,08313.9630,W,0.00,144.27,050619,,,A*75
$GPGGA,231540.000,4219.1672,N,08313.9630,W,1,05,3.1,179.0,M,-34.0,M,,0000*64
$GPGSA,A,3,05,02,12,06,09,,,,,,,,3.8,3.1,2.1*33
$GPRMC,231540.000,A,4219.1672,N,08313.9630,W,0.00,144.27,050619,,,A*7B
$GPGGA,231541.000,4219.1672,N,08313.9630,W,1,05,3.1,179.0,M,-34.0,M,,0000*65
$GPGSA,A,3,05,02,12,06,09,,,,,,,,3.8,3.1,2.1*33
$GPRMC,231541.000,A,4219.1672,N,08313.9630,W,0.00,144.27,050619,,,A*7A
$GPGGA,231542.000,4219.1672,N,08313.9630,W,1,05,3.1,179.0,M,-34.0,M,,0000*66
$GPGSA,A,3,05,02,12,06,09,,,,,,,,3.8,3.1,2.1*33
$GPRMC,231542.000,A,4219.1672,N,08313.9630,W,0.00,144.27,050619,,,A*79
$GPGGA,231543.000,4219.1672,N,08313.9630,W,1,05,3.1,179.0,M,-34.0,M,,0000*67
$GPGSA,A,3,05,02,12,06,09,,,,,,,,3.8,3.1,2.1*33
$GPGSV,3,1,12,05,70,203,38,02,69,039,36,12,35,226,37,06,30,075,37*76
$GPGSV,3,2,12,09,19,050,37,28,54,259,,03,50,074,,08,18,108,*73
$GPGSV,3,3,12,15,17,317,,19,12,038,,25,10,246,,21,00,036,*7D
$GPRMC,231543.000,A,4219.1672,N,08313.9630,W,0.00,144.27,050619,,,A*78
$GPGGA,231544.000,4219.1672,N,08313.9630,W,1,05,3.1,179.0,M,-34.0,M,,0000*60
$GPGSA,A,3,05,02,12,06,09,,,,,,,,3.8,3.1,2.1*33
$GPRMC,231544.000,A,4219.1672,N,08313.9630,W,0.00,144.27,050619,,,A*7F
$GPGGA,231545.000,4219.1672,N,08313.9630,W,1,05,3.1,179.0,M,-34.0,M,,0000*61
$GPGSA,A,3,05,02,12,06,09,,,,,,,,3.8,3.1,2.1*33
$GPRMC,231545.000,A,4219.1672,N,08313.9630,W,0.00,144.27,050619,,,A*7E
$GPGGA,231546.000,4219.1671,N,08313.9630,W,1,05,3.1,179.0,M,-34.0,M,,0000*61
$GPGSA,A,3,05,02,12,06,09,,,,,,,,3.8,3.1,2.1*33
$GPRMC,231546.000,A,4219.1671,N,08313.9630,W,0.00,144.27,050619,,,A*7E
$GPGGA,231547.000,4219.1671,N,08313.9630,W,1,05,3.1,179.0,M,-34.0,M,,0000*60
$GPGSA,A,3,05,02,12,06,09,,,,,,,,3.8,3.1,2.1*33
$GPRMC,231547.000,A,4219.1671,N,08313.9630,W,0.00,144.27,050619,,,A*7F
$GPGGA,231548.000,4219.1671,N,08313.9630,W,1,05,3.1,179.0,M,-34.0,M,,0000*6F
$GPGSA,A,3,05,02,12,06,09,,,,,,,,3.8,3.1,2.1*33
$GPGSV,3,1,12,05,70,203,38,02,69,039,36,12,35,226,37,06,30,075,37*76
$GPGSV,3,2,12,09,19,050,37,28,54,259,,03,50,074,,08,18,108,*73
$GPGSV,3,3,12,15,17,317,,19,12,038,,25,10,246,,21,00,036,*7D
$GPRMC,231548.000,A,4219.1671,N,08313.9630,W,0.00,144.27,050619,,,A*70
$GPGGA,231549.000,4219.1671,N,08313.9630,W,1,05,3.1,179.0,M,-34.0,M,,0000*6E
$GPGSA,A,3,05,02,12,06,09,,,,,,,,3.8,3.1,2.1*33
$GPRMC,231549.000,A,4219.1671,N,08313.9630,W,0.00,144.27,050619,,,A*71
$GPGGA,231550.000,4219.1671,N,08313.9630,W,1,05,3.1,179.0,M,-34.0,M,,0000*66
$GPGSA,A,3,05,02,12,06,09,,,,,,,,3.8,3.1,2.1*33
$GPRMC,231550.000,A,4219.1671,N,08313.9630,W,0.00,144.27,050619,,,A*79
$GPGGA,231551.000,4219.1671,N,08313.9630,W,1,05,3.1,179.0,M,-34.0,M,,0000*67
$GPGSA,A,3,05,02,12,06,09,,,,,,,,3.8,3.1,2.1*33
$GPRMC,231551.000,A,4219.1671,N,08313.9630,W,0.00,144.27,050619,,,A*78
$GPGGA,231552.000,4219.1671,N,08313.9630,W,1,05,3.1,179.0,M,-34.0,M,,0000*64
$GPGSA,A,3,05,02,12,06,09,,,,,,,,3.8,3.1,2.1*33
$GPRMC,231552.000,A,4219.1671,N,08313.9630,W,0.00,144.27,050619,,,A*7B
$GPGGA,231553.000,4219.1671,N,08313.9630,W,1,05,3.1,179.0,M,-34.0,M,,0000*65
$GPGSA,A,3,05,02,12,06,09,,,,,,,,3.8,3.1,2.1*33
$GPGSV,3,1,12,05,70,203,38,02,69,039,36,12,35,226,38,06,30,075,36*78
$GPGSV,3,2,12,09,19,050,37,28,54,259,,03,50,074,,08,18,108,*73
$GPGSV,3,3,12,15,17,317,,19,12,038,,25,10,246,,21,00,036,*7D
$GPRMC,231553.000,A,4219.1671,N,08313.9630,W,0.00,144.27,050619,,,A*7A
$GPGGA,231554.000,4219.1671,N,08313.9630,W,1,05,3.1,179.1,M,-34.0,M,,0000*63
$GPGSA,A,3,05,02,12,06,09,,,,,,,,3.8,3.1,2.1*33
$GPRMC,231554.000,A,4219.1671,N,08313.9630,W,0.00,144.27,050619,,,A*7D
$GPGGA,231555.000,4219.1671,N,08313.9630,W,1,05,3.1,179.1,M,-34.0,M,,0000*62
$GPGSA,A,3,05,02,12,06,09,,,,,,,,3.8,3.1,2.1*33
$GPRMC,231555.000,A,4219.1671,N,08313.9630,W,0.00,144.27,050619,,,A*7C
$GPGGA,231556.000,4219.1671,N,08313.9630,W,1,05,3.1,179.1,M,-34.0,M,,0000*61
$GPGSA,A,3,05,02,12,06,09,,,,,,,,3.8,3.1,2.1*33
$GPRMC,231556.000,A,4219.1671,N,08313.9630,W,0.00,144.27,050619,,,A*7F
$GPGGA,231557.000,4219.1671,N,08313.9630,W,1,05,3.1,179.1,M,-34.0,M,,0000*60
$GPGSA,A,3,05,02,12,06,09,,,,,,,,3.8,3.1,2.1*33
$GPRMC,231557.000,A,4219.1671,N,08313.9630,W,0.00,144.27,050619,,,A*7E
$GPGGA,231558.000,4219.1671,N,08313.9630,W,1,05,3.1,179.1,M,-34.0,M,,0000*6F
$GPGSA,A,3,05,02,12,06,09,,,,,,,,3.8,3.1,2.1*33
$GPGSV,3,1,12,05,70,203,38,02,69,039,37,12,35,226,38,06,30,075,36*79
$GPGSV,3,2,12,09,19,050,36,28,54,259,,03,50,074,,08,18,108,*72
$GPGSV,3,3,12,15,17,317,,19,12,038,,25,10,246,,21,00,036,*7D
$GPRMC,231558.000,A,4219.1671,N,08313.9630,W,0.00,144.27,050619,,,A*71
$GPGGA,231559.000,4219.1671,N,08313.9630,W,1,05,3.1,179.1,M,-34.0,M,,0000*6E
$GPGSA,A,3,05,02,12,06,09,,,,,,,,3.8,3.1,2.1*33
$GPRMC,231559.000,A,4219.1671,N,08313.9630,W,0.00,144.27,050619,,,A*70
$GPGGA,231600.000,4219.1671,N,08313.9630,W,1,05,3.1,179.1,M,-34.0,M,,0000*61
$GPGSA,A,3,05,02,12,06,09,,,,,,,,3.8,3.1,2.1*33
$GPRMC,231600.000,A,4219.1671,N,08313.9630,W,0.00,144.27,050619,,,A*7F
$GPGGA,231601.000,4219.1671,N,08313.9630,W,1,05,3.1,179.1,M,-34.0,M,,0000*60
$GPGSA,A,3,05,02,12,06,09,,,,,,,,3.8,3.1,2.1*33
$GPRMC,231601.000,A,4219.1671,N,08313.9630,W,0.00,144.27,050619,,,A*7E
$GPGGA,231602.000,4219.1671,N,08313.9630,W,1,05,3.1,179.1,M,-34.0,M,,0000*63
$GPGSA,A,3,05,02,12,06,09,,,,,,,,3.8,3.1,2.1*33
$GPRMC,231602.000,A,4219.1671,N,08313.9630,W,0.00,144.27,050619,,,A*7D
$GPGGA,231603.000,4219.1671,N,08313.9630,W,1,05,3.1,179.1,M,-34.0,M,,0000*62
$GPGSA,A,3,05,02,12,06,09,,,,,,,,3.8,3.1,2.1*33
$GPGSV,3,1,12,05,70,203,39,02,69,039,37,12,35,226,38,06,30,075,35*7B
$GPGSV,3,2,12,09,19,050,37,28,54,259,,03,50,074,,08,18,108,*73
$GPGSV,3,3,12,15,17,317,,19,12,038,,25,10,246,,21,00,036,*7D
$GPRMC,231603.000,A,4219.1671,N,08313.9630,W,0.00,144.27,050619,,,A*7C
$GPGGA,231604.000,4219.1671,N,08313.9630,W,1,05,3.1,179.1,M,-34.0,M,,0000*65
$GPGSA,A,3,05,02,12,06,09,,,,,,,,3.8,3.1,2.1*33
$GPRMC,231604.000,A,4219.1671,N,08313.9630,W,0.00,144.27,050619,,,A*7B
$GPGGA,231605.000,4219.1671,N,08313.9630,W,1,05,3.1,179.1,M,-34.0,M,,0000*64
$GPGSA,A,3,05,02,12,06,09,,,,,,,,3.8,3.1,2.1*33
$GPRMC,231605.000,A,4219.1671,N,08313.9630,W,0.00,144.27,050619,,,A*7A
$GPGGA,231606.000,4219.1671,N,08313.9630,W,1,05,3.1,179.1,M,-34.0,M,,0000*67
$GPGSA,A,3,05,02,12,06,09,,,,,,,,3.8,3.1,2.1*33
$GPRMC,231606.000,A,4219.1671,N,08313.9630,W,0.00,144.27,050619,,,A*79
$GPGGA,231607.000,4219.1670,N,08313.9630,W,1,05,3.1,179.1,M,-34.0,M,,0000*67
$GPGSA,A,3,05,02,12,06,09,,,,,,,,3.8,3.1,2.1*33
$GPRMC,231607.000,A,4219.1670,N,08313.9630,W,0.00,144.27,050619,,,A*79
$GPGGA,231608.000,4219.1670,N,08313.9630,W,1,05,3.1,179.1,M,-34.0,M,,0000*68
$GPGSA,A,3,05,02,12,06,09,,,,,,,,3.8,3.1,2.1*33
$GPGSV,3,1,12,05,70,203,39,02,69,039,37,12,35,226,38,06,30,075,35*7B
$GPGSV,3,2,12,09,19,050,37,28,54,259,,03,50,074,,08,18,108,*73
$GPGSV,3,3,12,15,17,317,,19,12,038,,25,10,246,,21,00,036,*7D
$GPRMC,231608.000,A,4219.1670,N,08313.9630,W,0.00,144.27,050619,,,A*76
$GPGGA,231609.000,4219.1670,N,08313.9630,W,1,05,3.1,179.1,M,-34.0,M,,0000*69
$GPGSA,A,3,05,02,12,06,09,,,,,,,,3.8,3.1,2.1*33
$GPRMC,231609.000,A,4219.1670,N,08313.9630,W,0.00,144.27,050619,,,A*77
$GPGGA,231610.000,4219.1670,N,08313.9630,W,1,05,3.1,179.2,M,-34.0,M,,0000*62
$GPGSA,A,3,05,02,12,06,09,,,,,,,,3.8,3.1,2.1*33
$GPRMC,231610.000,A,4219.1670,N,08313.9630,W,0.00,144.27,050619,,,A*7F
$GPGGA,231611.000,4219.1670,N,08313.9630,W,1,05,3.1,179.2,M,-34.0,M,,0000*63
$GPGSA,A,3,05,02,12,06,09,,,,,,,,3.8,3.1,2.1*33
$GPRMC,231611.000,A,4219.1670,N,08313.9630,W,0.00,144.27,050619,,,A*7E
$GPGGA,231612.000,4219.1670,N,08313.9630,W,1,05,3.1,179.2,M,-34.0,M,,0000*60
$GPGSA,A,3,05,02,12,06,09,,,,,,,,3.8,3.1,2.1*33
$GPRMC,231612.000,A,4219.1670,N,08313.9630,W,0.00,144.27,050619,,,A*7D
$GPGGA,231613.000,4219.1670,N,08313.9630,W,1,05,3.1,179.2,M,-34.0,M,,0000*61
$GPGSA,A,3,05,02,12,06,09,,,,,,,,3.8,3.1,2.1*33
$GPGSV,3,1,12,05,70,203,38,02,69,039,36,12,35,226,38,06,30,075,35*7B
$GPGSV,3,2,12,09,19,050,37,28,54,259,,03,50,074,,08,18,108,*73
$GPGSV,3,3,12,15,17,317,,19,12,038,,25,10,246,,21,00,036,*7D
$GPRMC,231613.000,A,4219.1670,N,08313.9630,W,0.00,144.27,050619,,,A*7C
$GPGGA,231614.000,4219.1670,N,08313.9630,W,1,05,3.1,179.2,M,-34.2,06,09,,,,,,,,3.8,3.1,2.1*33
$GPRMC,231614.000,A,4219.1670,N,08313.9630,W,0.00,144.27,050619,,,A*7B
$GPGGA,231615.000,4219.1670,N,08313.9630,W,1,05,3.1,179.2,M,-34.0,M,,0000*67
$GPGSA,A,3,05,02,12,06,09,,,,,,,,3.8,3.1,2.1*33
$GPRMC,231615.000,A,4219.1670,N,08313.9630,W,0.00,144.27,050619,,,A*7A
$GPGGA,231616.000,4219.1670,N,08313.9630,W,1,05,3.1,179.2,M,-34.0,M,,0000*64
$GPGSA,A,3,05,02,1GPRMC,231616.000,A,4219.1670,N,08313.9630,W,0.00,144.27,050619,,,A*79
$GPGGA,231617.000,4219.1670,N,08313.9629,W,1,05,3.1,179.2,M,-34.0,M,,0000*6D
$GPGSA,A,3,05,02,12,06,09,,,,,,,,3.8,3.1,2.1*33
$GPRMC,231617.000,A,4219.1670,N,08313.9629,W,0.00,144.27,050619,,,A*70
$GPGGA,231618.000,4219.1670,N,08313.9629,W,1,05,3.1,179.2,M,-34.0,M,,0000*62
$GPGSA,A,3,05,02,12,06,09,,,,,,,,3.8,3.1,2.1*33
$GPGSV,3,1,12,05,70,203,39,02,69,039,36,12,35,226,38,06,30,075,35*7A
$GPGSV,3,2,12,09,19,050,38,28,54,259,,03,50,074,,08,18,108,*7C
$GPGSV,3,3,12,15,17,317,,19,12,038,,25,10,246,,21,00,036,*7D
$GPRMC,231618.000,A,4219.1670,N,08313.9629,W,0.00,144.27,050619,,,A*7F
$GPGGA,231619.000,4219.1670,N,08313.9629,W,1,05,3.1,179.2,M,-34.0,M,,0000*63
$GPGSA,A,3,05,02,12,06,09,,,,,,,,3.8,3.1,2.1*33
$GPRMC,231619.000,A,4219.1670,N,08313.9629,W,0.00,144.27,050619,,,A*7E
$GPGGA,231620.000,4219.1670,N,08313.9629,W,1,05,3.1,179.2,M,-34.0,M,,0000*69
$GPGSA,A,3,05,02,12,06,09,,,,,,,,3.8,3.1,2.1*33
$GPRMC,231620.000,A,4219.1670,N,08313.9629,W,0.00,144.27,050619,,,A*74
$GPGGA,231621.000,4219.1670,N,08313.9629,W,1,05,3.1,179.2,M,-34.0,M,,0000*68
$GPGSA,A,3,05,02,12,06,09,,,,,,,,3.8,3.1,2.1*33
$GPRMC,231621.000,A,4219.1670,N,08313.9629,W,0.00,144.27,050619,,,A*75
$GPGGA,231622.000,4219.1670,N,08313.9629,W,1,05,3.1,179.2,M,-34.0,M,,0000*6B
$GPGSA,A,3,05,02,12,06,09,,,,,,,,3.8,3.1,2.1*33
$GPRMC,231622.000,A,4219.1670,N,08313.9629,W,0.00,144.27,050619,,,A*76
$GPGGA,231623.000,4219.1670,N,08313.9629,W,1,05,3.1,179.2,M,-34.0,M,,0000*6A
$GPGSA,A,3,05,02,12,06,09,,,,,,,,3.8,3.1,2.1*33
$GPGSV,3,1,12,05,70,203,39,02,69,039,37,12,35,226,39,06,30,075,35*7A
$GPGSV,3,2,12,09,19,050,39,28,54,259,,03,50,074,,08,18,108,*7D
$GPGSV,3,3,12,15,17,317,,19,12,038,,25,10,246,,21,00,036,*7D
$GPRMC,231623.000,A,4219.1670,N,08313.9629,W,0.00,144.27,050619,,,A*77
$GPGGA,231624.000,4219.1670,N,08313.9629,W,1,05,3.1,179.2,M,-34.0,M,,0000*6D
$GPGSA,A,3,05,02,12,06,09,,,,,,,,3.8,3.1,2.1*33
$GPRMC,231624.000,A,4219.1670,N,08313.9629,W,0.00,144.27,050619,,,A*70
$GPGGA,231625.000,4219.1669,N,08313.9629,W,1,05,3.1,179.2,M,-34.0,M,,0000*64
$GPGSA,A,3,05,02,12,06,09,,,,,,,,3.8,3.1,2.1*33
$GPRMC,231625.000,A,4219.1669,N,08313.9629,W,0.00,144.27,050619,,,A*79
$GPGGA,231626.000,4219.1669,N,08313.9629,W,1,05,3.1,179.3,M,-34.0,M,,0000*66
$GPGSA,A,3,05,02,12,06,09,,,,,,,,3.8,3.1,2.1*33
$GPRMC,231626.000,A,4219.1669,N,08313.9629,W,0.00,144.27,050619,,,A*7A
$GPGGA,231627.000,4219.1669,N,08313.9629,W,1,05,3.1,179.3,M,-34.0,M,,0000*67
$GPGSA,A,3,05,02,12,06,09,,,,,,,,3.8,3.1,2.1*33
$GPRMC,231627.000,A,4219.1669,N,08313.9629,W,0.00,144.27,050619,,,A*7B
$GPGGA,231628.000,4219.1669,N,08313.9629,W,1,05,3.1,179.3,M,-34.0,M,,0000*68
$GPGSA,A,3,05,02,12,06,09,,,,,,,,3.8,3.1,2.1*33
$GPGSV,3,1,12,05,70,203,39,02,69,039,37,12,35,226,40,06,30,075,35*74
$GPGSV,3,2,12,09,19,050,40,28,54,259,,03,50,074,,08,18,108,*73
$GPGSV,3,3,12,15,17,317,,19,12,038,,25,10,246,,21,00,036,*7D
$GPRMC,231628.000,A,4219.1669,N,08313.9629,W,0.00,144.27,050619,,,A*74
$GPGGA,231629.000,4219.1669,N,08313.9629,W,1,05,3.1,179.3,M,-34.0,M,,0000*69
$GPGSA,A,3,05,02,12,06,09,,,,,,,,3.7,3.1,2.1*3C
$GPRMC,231629.000,A,4219.1669,N,08313.9629,W,0.00,144.27,050619,,,A*75
$GPGGA,231630.000,4219.1669,N,08313.9629,W,1,05,3.1,179.3,M,-34.0,M,,0000*61
$GPGSA,A,3,05,02,12,06,09,,,,,,,,3.7,3.1,2.1*3C
$GPRMC,231630.000,A,4219.1669,N,08313.9629,W,0.00,144.27,050619,,,A*7D
$GPGGA,231631.000,4219.1669,N,08313.9629,W,1,05,3.1,179.3,M,-34.0,M,,0000*60
$GPGSA,A,3,05,02,12,06,09,,,,,,,,3.7,3.1,2.1*3C
$GPRMC,231631.000,A,4219.1669,N,08313.9629,W,0.00,144.27,050619,,,A*7C
$GPGGA,231632.000,4219.1669,N,08313.9629,W,1,05,3.1,179.3,M,-34.0,M,,0000*63
$GPGSA,A,3,05,02,12,06,09,,,,,,,,3.7,3.1,2.1*3C
$GPRMC,231632.000,A,4219.1669,N,08313.9629,W,0.00,144.27,050619,,,A*7F
$GPGGA,231633.000,4219.1669,N,08313.9629,W,1,05,3.1,179.3,M,-34.0,M,,0000*62
$GPGSA,A,3,05,02,12,06,09,,,,,,,,3.7,3.1,2.1*3C
$GPGSV,3,1,12,05,70,203,38,02,69,039,37,12,35,226,40,06,30,075,36*76
$GPGSV,3,2,12,09,19,050,40,28,54,259,,03,50,074,,08,18,108,*73
$GPGSV,3,3,12,15,17,317,,19,12,038,,25,10,246,,21,00,036,*7D
$GPRMC,231633.000,A,4219.1669,N,08313.9629,W,0.00,144.27,050619,,,A*7E
$GPGGA,231634.000,4219.1669,N,08313.9629,W,1,05,3.1,179.3,M,-34.0,M,,0000*65
$GPGSA,A,3,05,02,12,06,09,,,,,,,,3.7,3.1,2.1*3C
$GPRMC,231634.000,A,4219.1669,N,08313.9629,W,0.00,144.27,050619,,,A*79
$GPGGA,231635.000,4219.1669,N,08313.9629,W,1,05,3.1,179.4,M,-34.0,M,,0000*63
$GPGSA,A,3,05,02,12,06,09,,,,,,,,3.7,3.1,2.1*3C
$GPRMC,231635.000,A,4219.1669,N,08313.9629,W,0.00,144.27,050619,,,A*78
$GPGGA,231636.000,4219.1668,N,08313.9629,W,1,05,3.1,179.4,M,-34.0,M,,0000*61
$GPGSA,A,3,05,02,12,06,09,,,,,,,,3.7,3.1,2.1*3C
$GPRMC,231636.000,A,4219.1668,N,08313.9629,W,0.00,144.27,050619,,,A*7A
$GPGGA,231637.000,4219.1668,N,08313.9629,W,1,05,3.1,179.4,M,-34.0,M,,0000*60
$GPGSA,A,3,05,02,12,06,09,,,,,,,,3.7,3.1,2.1*3C
$GPRMC,231637.000,A,4219.1668,N,08313.9629,W,0.00,144.27,050619,,,A*7B
$GPGGA,231638.000,4219.1668,N,08313.9628,W,1,05,3.1,179.4,M,-34.0,M,,0000*6E
$GPGSA,A,3,05,02,12,06,09,,,,,,,,3.7,3.1,2.1*3C
$GPGSV,3,1,12,05,70,203,38,02,69,039,37,12,35,226,40,06,30,075,36*76
$GPGSV,3,2,12,09,19,050,41,28,54,259,,03,50,074,,08,18,108,*72
$GPGSV,3,3,12,15,17,317,,19,12,038,,25,10,246,,21,00,036,*7D
$GPRMC,231638.000,A,4219.1668,N,08313.9628,W,0.00,144.27,050619,,,A*75
$GPGGA,231639.000,4219.1668,N,08313.9628,W,1,05,3.1,179.5,M,-34.0,M,,0000*6E
$GPGSA,A,3,05,02,12,06,09,,,,,,,,3.7,3.1,2.1*3C
$GPRMC,231639.000,A,4219.1668,N,08313.9628,W,0.00,144.27,050619,,,A*74
$GPGGA,231640.000,4219.1668,N,08313.9628,W,1,05,3.1,179.5,M,-34.0,M,,0000*60
