0,M,,0000*5F
$GPGSA,A,2,02,05,06,,,,,,,,,,4.8,3.6,3.2*3A
$GPRMC,225121.551,A,4219.1916,N,08314.0210,W,0.41,338.39,050619,,,A*7A
314.0214,W,1,03,3.6,34.0,M,-34.0,M,,0000*57
$GPGSA,A,2,02,05,06,,,,,,,,,,4.8,3.6,3.2*3A
$GPRMC,225122.551,A,4219.1919,N,08314.0214,W,1.11,166.96,050619,,,A*7A
$GPGGA,225123.551,4219.1921,N,08314.0217,W,1,03,3.6,34.0,M,-34.0,M,,0000*5E
$GPGSA,A,2,02,05,06,,,,,,,,,,4.8,3.6,3.2*3A
$GPGSV,3,1,11,02,73,008,28,05,58,201,35,06,38,067,31,09,00,000,33*75
$GPGSV,3,2,11,03,53,093,,28,46,247,,08,27,099,,19,20,044,*79
$GPGSV,3,3,11,12,11,056,,15,08,319,,25,02,240,*4D
$GPRMC,225123.551,A,4219.1921,N,08314.0217,W,0.91,129.78,050619,,,A*71
$GPGGA,225124.551,4219.1922,N,08314.0219,W,1,03,3.6,34.0,M,-34.0,M,,0000*54
$GPGSA,A,2,02,05,06,,,,,,,,,,4.8,3.6,3.2*3A
$GPRMC,225124.551,A,4219.1922,N,08314.0219,W,0.63,143.67,050619,,,A*74
$GPGGA,225125.551,4219.1922,N,08314.0221,W,1,03,3.6,34.0,M,-34.0,M,,0000*5E
$GPGSA,A,2,02,05,06,,,,,,,,,,4.8,3.6,3.2*3A
$GPRMC,225125.551,A,4219.1922,N,08314.0221,W,1.93,140.05,050619,,,A*77
$GPGGA,225126.551,4219.1922,N,08314.0220,W,1,03,3.6,34.0,M,-34.0,M,,0000*5C
$GPGSA,A,2,02,05,06,,,,,,,,,,4.8,3.6,3.2*3A
$GPRMC,225126.551,A,4219.1922,N,08314.0220,W,0.24,170.16,050619,,,A*79
$GPGGA,225127.551,4219.1607,N,08313.9495,W,1,04,5.2,232.9,M,-34.0,M,,0000*6B
$GPGSA,A,3,02,05,06,09,,,,,,,,,7.8,5.2,5.9*3E
$GPRMC,225127.551,A,4219.1607,N,08313.9495,W,0.73,327.21,050619,,,A*70
$GPGGA,225128.551,4219.1607,N,08313.9494,W,1,04,5.2,232.9,M,-34.0,M,,0000*65
$GPGSA,A,3,02,05,06,09,,,,,,,,,7.8,5.2,5.9*3E
$GPGSV,3,1,11,02,73,009,28,05,58,201,35,06,38,067,31,09,21,060,33*71
$GPGSV,3,2,11,03,53,092,,28,46,247,,08,27,099,,19,20,044,*78
$GPGSV,3,3,11,12,11,056,,15,09,319,,25,02,240,*4C
$GPRMC,225128.551,A,4219.1607,N,08313.9494,W,0.07,327.21,050619,,,A*7D
$GPGGA,225129.551,4219.1607,N,08313.9495,W,1,04,5.2,232.7,M,-34.0,M,,0000*6B
$GPGSA,A,3,02,05,06,09,,,,,,,,,7.8,5.2,5.9*3E
$GPRMC,225129.551,A,4219.1607,N,08313.9495,W,0.25,327.21,050619,,,A*7D
$GPGGA,225130.551,4219.1608,N,08313.9496,W,1,04,5.2,232.8,M,-34.0,M,,0000*60
$GPGSA,A,3,02,05,06,09,,,,,,,,,7.8,5.2,5.9*3E
$GPRMC,225130.551,A,4219.1608,N,08313.9496,W,1.00,327.21,050619,,,A*7F
$GPGGA,225147.551,4219.1606,N,08313.9495,W,1,04,5.1,232.7,M,-34.0,M,,0000*61
$GPGSA,A,3,02,05,06,09,,,,,,,,,7.8,5.1,5.8*3C
$GPRMC,225147.551,A,4219.1606,N,08313.9495,W,0.18,327.21,050619,,,A*7A
$GPGGA,225148.551,4219.1608,N,08313.9497,W,1,04,5.1,232.7,M,-34.0,M,,0000*62
$GPGSA,A,3,02,05,06,09,,,,,,,,,7.8,5.1,5.8*3C
$GPGSV,3,1,11,02,73,009,29,05,58,201,35,06,38,067,31,09,21,060,31*72
$GPGSV,3,2,11,03,53,092,,28,46,247,,08,27,099,,19,20,044,*78
$GPGSV,3,3,11,12,11,056,,15,09,319,,25,02,240,*4C
$GPRMC,225148.551,A,4219.1608,N,08313.9497,W,0.36,327.21,050619,,,A*75
$GPGGA,225149.551,4219.1607,N,08313.9496,W,1,04,5.1,232.6,M,-34.0,M,,0000*6C
$GPGSA,A,3,02,05,06,09,,,,,,,,,7.8,5.1,5.8*3C
$GPRMC,225149.551,A,4219.1607,N,08313.9496,W,0.18,327.21,050619,,,A*76
$GPGGA,225150.551,4219.1606,N,08313.9493,W,1,04,5.1,232.6,M,-34.0,M,,0000*60
$GPGSA,A,3,02,05,06,09,,,,,,,,,7.8,5.1,5.8*3C
$GPRMC,225150.551,A,4219.1606,N,08313.9493,W,0.27,327.21,050619,,,A*76
$GPGGA,225151.551,4219.1606,N,08313.9493,W,1,04,5.1,232.5,M,-34.0,M,,0000*62
$GPGSA,A,3,02,05,06,09,,,,,,,,,7.8,5.1,5.8*3C
$GPRMC,225151.551,A,4219.1606,N,08313.9493,W,0.15,327.21,050619,,,A*76
$GPGGA,225152.551,4219.1604,N,08313.9491,W,1,04,5.1,232.5,M,-34.0,M,,0000*61
$GPGSA,A,3,02,05,06,09,,,,,,,,,7.8,5.1,5.8*3C
$GPRMC,225152.551,A,4219.1604,N,08313.9491,W,0.46,327.21,050619,,,A*73
$GPGGA,225153.551,4219.1606,N,08313.9493,W,1,04,5.1,232.4,M,-34.0,M,,0000*61
$GPGSA,A,3,02,05,06,09,,,,,,,,,7.8,5.1,5.8*3C
$GPGSV,3,1,11,02,73,009,29,05,58,201,35,06,38,067,31,09,21,060,31*72
$GPGSV,3,2,11,03,53,092,,28,46,247,,08,27,099,,19,20,044,*78
$GPGSV,3,3,11,12,11,056,,15,09,319,,25,02,240,*4C
$GPRMC,225153.551,A,4219.1606,N,08313.9493,W,0.08,327.21,050619,,,A*78
$GPGGA,225154.551,4219.1606,N,08313.9494,W,1,04,5.1,232.4,M,-34.0,M,,0000*61
$GPGSA,A,3,02,05,06,09,,,,,,,,,7.8,5.1,5.8*3C
$GPRMC,225154.551,A,4219.1606,N,08313.9494,W,0.12,327.21,050619,,,A*73
$GPGGA,225155.551,4219.1605,N,08313.9493,W,1,04,5.1,232.4,M,-34.0,M,,0000*64
$GPGSA,A,3,02,05,06,09,,,,,,,,,7.8,5.1,5.8*3C
$GPRMC,225155.551,A,4219.1605,N,08313.9493,W,0.11,327.21,050619,,,A*75
$GPGGA,225156.551,4219.1605,N,08313.9492,W,1,04,5.1,232.3,M,-34.0,M,,0000*61
$GPGSA,A,3,02,05,06,09,,,,,,,,,7.8,5.1,5.8*3C
$GPRMC,225156.551,A,4219.1605,N,08313.9492,W,0.13,327.21,050619,,,A*75
$GPGGA,225157.551,4219.1604,N,08313.9491,W,1,04,5.1,232.3,M,-34.0,M,,0000*62
$GPGSA,A,3,02,05,06,09,,,,,,,,,7.8,5.1,5.8*3C
$GPRMC,225157.551,A,4219.1604,N,08313.9491,W,0.22,327.21,050619,,,A*74
$GPGGA,225158.551,4219.1605,N,08313.9491,W,1,04,5.1,232.3,M,-34.0,M,,0000*6C
$GPGSA,A,3,02,05,06,09,,,,,,,,,7.8,5.1,5.8*3C
$GPGSV,3,1,11,02,73,009,29,05,58,201,35,06,38,067,31,09,21,060,31*72
$GPGSV,3,2,11,03,53,092,,28,46,247,,08,27,099,,19,20,044,*78
$GPGSV,3,3,11,12,11,056,,15,09,319,,25,02,240,*4C
$GPRMC,225158.551,A,4219.1605,N,08313.9491,W,0.16,327.21,050619,,,A*7D
$GPGGA,225159.551,4219.1604,N,08313.9490,W,1,04,5.1,232.3,M,-34.0,M,,0000*6D
$GPGSA,A,3,02,05,06,09,,,,,,,,,7.8,5.1,5.8*3C
$GPRMC,225159.551,A,4219.1604,N,08313.9490,W,0.05,327.21,050619,,,A*7E
$GPGGA,225200.551,4219.1604,N,08313.9488,W,1,04,5.1,233.0,M,-34.0,M,,0000*69
$GPGSA,A,3,02,05,06,09,,,,,,,,,7.8,5.1,5.8*3C
$GPRMC,225200.551,A,4219.1604,N,08313.9488,W,0.04,327.21,050619,,,A*79
$GPGGA,225201.551,4219.1604,N,08313.9488,W,1,04,5.1,233.0,M,-34.0,M,,0000*68
$GPGSA,A,3,02,05,06,09,,,,,,,,,7.8,5.1,5.8*3C
$GPRMC,225201.551,A,4219.1604,N,08313.9488,W,0.19,327.21,050619,,,A*74
$GPGGA,225202.551,4219.1607,N,08313.9491,W,1,04,5.1,232.5,M,-34.0,M,,0000*64
$GPGSA,A,3,02,05,06,09,,,,,,,,,7.7,5.1,5.8*33
$GPRMC,225202.551,A,4219.1607,N,08313.9491,W,0.31,327.21,050619,,,A*76
$GPGGA,225203.551,4219.1609,N,08313.9494,W,1,04,5.1,232.0,M,-34.\x00$PSRF150,1*3E


\x00$PSRF150,1*3E

$GPGGA,,,,,,0,00,,,M,0.0,M,,0000*48
$GPGSA,A,1,,,,,,,,,,,,,,,*1E
$GPRMC,,V,,,,,,,,,,N*53
$GPGGA,,,,,,0,00,,,M,0.0,M,,0000*48
$GPGSA,A,1,,,,,,,,,,,,,,,*1E
$GPRMC,,V,,,,,,,,,,N*53
$GPGGA,,,,,,0,00,,,M,0.0,M,,0000*48
$GPGSA,A,1,,,,,,,,,,,,,,,*1E
$GPRMC,,V,,,,,,,,,,N*53
$GPGGA,,,,,,0,00,,,M,0.0,M,,0000*48
$GPGSA,A,1,,,,,,,,,,,,,,,*1E
$GPRMC,,V,,,,,,,,,,N*53
$GPGGA,,,,,,0,00,,,M,0.0,M,,0000*48
$GPGSA,A,1,,,,,,,,,,,,,,,*1E
$GPGSV,3,1,12,01,00,000,,02,00,000,,03,00,000,,04,00,000,*7C
$GPGSV,3,2,12,05,00,000,,06,00,000,,07,00,000,,08,00,000,*77
$GPGSV,3,3,12,09,00,000,,10,00,000,,11,00,000,,12,00,000,*71
$GPRMC,,V,,,,,,,,,,N*53
$GPGGA,,,,,,0,00,,,M,0.0,M,,0000*48
$GPGSA,A,1,,,,,,,,,,,,,,,*1E
$GPRMC,,V,,,,,,,,,,N*53
$GPGGA,,,,,,0,00,,,M,0.0,M,,0000*48
$GPGSA,A,1,,,,,,,,,,,,,,,*1E
$GPRMC,,V,,,,,,,,,,N*53
$GPGGA,,,,,,0,00,,,M,0.0,M,,0000*48
$GPGSA,A,1,,,,,,,,,,,,,,,*1E
$GPRMC,,V,,,,,,,,,,N*53
$GPGGA,,,,,,0,00,,,M,0.0,M,,0000*48
$GPGSA,A,1,,,,,,,,,,,,,,,*1E
$GPRMC,,V,,,,,,,,,,N*53
$GPGGA,,,,,,0,00,,,M,0.0,M,,0000*48
$GPGSA,A,1,,,,,,,,,,,,,,,*1E
$GPGSV,3,1,12,01,00,000,,02,00,000,,03,00,000,,04,00,000,*7C
$GPGSV,3,2,12,05,00,000,,06,00,000,,07,00,000,,08,00,000,*77
$GPGSV,3,3,12,09,00,000,,10,00,000,,11,00,000,,12,00,000,*71
$GPRMC,,V,,,,,,,,,,N*53
$GPGGA,,,,,,0,00,,,M,0.0,M,,0000*48
$GPGSA,A,1,,,,,,,,,,,,,,,*1E
$GPRMC,,V,,,,,,,,,,N*53
$GPGGA,,,,,,0,00,,,M,0.0,M,,0000*48
$GPGSA,A,1,,,,,,,,,,,,,,,*1E
$GPRMC,,V,,,,,,,,,,N*53
$GPGGA,,,,,,0,00,,,M,0.0,M,,0000*48
$GPGSA,A,1,,,,,,,,,,,,,,,*1E
$GPRMC,,V,,,,,,,,,,N*53
$GPGGA,,,,,,0,00,,,M,0.0,M,,0000*48
$GPGSA,A,1,,,,,,,,,,,,,,,*1E
$GPRMC,,V,,,,,,,,,,N*53
$GPGGA,,,,,,0,00,,,M,0.0,M,,0000*48
$GPGSA,A,1,,,,,,,,,,,,,,,*1E
$GPGSV,3,1,12,09,00,000,18,01,00,000,,02,00,000,,03,00,000,*78
$GPGSV,3,2,12,04,00,000,,05,00,000,,06,00,000,,07,00,000,*7B
$GPGSV,3,3,12,08,00,000,,10,00,000,,11,00,000,,12,00,000,*70
$GPRMC,,V,,,,,,,,,,N*53
$GPGGA,,,,,,0,00,,,M,0.0,M,,0000*48
$GPGSA,A,1,,,,,,,,,,,,,,,*1E
$GPRMC,,V,,,,,,,,,,N*53
$GPGGA,,,,,,0,00,,,M,0.0,M,,0000*48
$GPGSA,A,1,,,,,,,,,,,,,,,*1E
$GPRMC,,V,,,,,,,,,,N*53
$GPGGA,,,,,,0,00,,,M,0.0,M,,0000*48
$GPGSA,A,1,,,,,,,,,,,,,,,*1E
$GPRMC,,V,,,,,,,,,,N*53
$GPGGA,,,,,,0,00,,,M,0.0,M,,0000*48
$GPGSA,A,1,,,,,,,,,,,,,,,*1E
$GPRMC,,V,,,,,,,,,,N*53
$GPGGA,,,,,,0,00,,,M,0.0,M,,0000*48
$GPGSA,A,1,,,,,,,,,,,,,,,*1E
$GPGSV,3,1,12,02,00,000,15,09,00,000,18,01,00,000,,03,00,000,*7C
$GPGSV,3,2,12,04,00,000,,05,00,000,,06,00,000,,07,00,000,*7B
$GPGSV,3,3,12,08,00,000,,10,00,000,,11,00,000,,12,00,000,*70
$GPRMC,,V,,,,,,,,,,N*53
$GPGGA,,,,,,0,00,,,M,0.0,M,,0000*48
$GPGSA,A,1,,,,,,,,,,,,,,,*1E
$GPRMC,,V,,,,,,,,,,N*53

\x00$PSRF150,1*3E

$GPGGA,,,,,,0,00,,,M,0.0,M,,0000*48
$GPGSA,A,1,,,,,,,,,,,,,,,*1E
$GPRMC,,V,,,,,,,,,,N*53
$GPGGA,,,,,,0,00,,,M,0.0,M,,0000*48
$GPGSA,A,1,,,,,,,,,,,,,,,*1E
$GPRMC,,V,,,,,,,,,,N*53
$GPGGA,,,,,,0,00,,,M,0.0,M,,0000*48
$GPGSA,A,1,,,,,,,,,,,,,,,*1E
$GPRMC,,V,,,,,,,,,,N*53
$GPGGA,,,,,,0,00,,,M,0.0,M,,0000*48
$GPGSA,A,1,,,,,,,,,,,,,,,*1E
$GPRMC,,V,,,,,,,,,,N*53
$GPGGA,,,,,,0,00,,,M,0.0,M,,0000*48
$GPGSA,A,1,,,,,,,,,,,,,,,*1E
$GPGSV,3,1,12,01,00,000,,02,00,000,,03,00,000,,04,00,000,*7C
$GPGSV,3,2,12,05,00,000,,06,00,000,,07,00,000,,08,00,000,*77
$GPGSV,3,3,12,09,00,000,,10,00,000,,11,00,000,,12,00,000,*71
$GPRMC,,V,,,,,,,,,,N*53
$GPGGA,,,,,,0,00,,,M,0.0,M,,0000*48
$GPGSA,A,1,,,,,,,,,,,,,,,*1E
$GPRMC,,V,,,,,,,,,,N*53
$GPGGA,,,,,,0,00,,,M,0.0,M,,0000*48
$GPGSA,A,1,,,,,,,,,,,,,,,*1E
$GPRMC,,V,,,,,,,,,,N*53
$GPGGA,,,,,,0,00,,,M,0.0,M,,0000*48
$GPGSA,A,1,,,,,,,,,,,,,,,*1E
$GPRMC,,V,,,,,,,,,,N*53
$GPGGA,,,,,,0,00,,,M,0.0,M,,0000*48
$GPGSA,A,1,,,,,,,,,,,,,,,*1E
$GPRMC,,V,,,,,,,,,,N*53
$GPGGA,,,,,,0,00,,,M,0.0,M,,0000*48
$GPGSA,A,1,,,,,,,,,,,,,,,*1E
$GPGSV,3,1,12,02,00,000,26,06,00,000,31,09,00,000,26,12,00,000,33*74
$GPGSV,3,2,12,01,00,000,,03,00,000,,04,00,000,,05,00,000,*78
$GPGSV,3,3,12,07,00,000,,08,00,000,,10,00,000,,11,00,000,*74
$GPRMC,,V,,,,,,,,,,N*53
$GPGGA,,,,,,0,00,,,M,0.0,M,,0000*48
$GPGSA,A,1,,,,,,,,,,,,,,,*1E
$GPRMC,,V,,,,,,,,,,N*53
$GPGGA,,,,,,0,00,,,M,0.0,M,,0000*48
$GPGSA,A,1,,,,,,,,,,,,,,,*1E
$GPRMC,,V,,,,,,,,,,N*53
$GPGGA,,,,,,0,00,,,M,0.0,M,,0000*48
$GPGSA,A,1,,,,,,,,,,,,,,,*1E
$GPRMC,,V,,,,,,,,,,N*53
$GPGGA,,,,,,0,00,,,M,0.0,M,,0000*48
$GPGSA,A,1,,,,,,,,,,,,,,,*1E
$GPRMC,,V,,,,,,,,,,N*53
$GPGGA,,,,,,0,00,,,M,0.0,M,,0000*48
$GPGSA,A,1,,,,,,,,,,,,,,,*1E
$GPGSV,3,1,12,02,00,000,27,06,00,000,31,09,00,000,27,12,00,000,33*74
$GPGSV,3,2,12,01,00,000,,03,00,000,,04,00,000,,05,00,000,*78
$GPGSV,3,3,12,07,00,000,,08,00,000,,10,00,000,,11,00,000,*74
$GPRMC,,V,,,,,,,,,,N*53
$GPGGA,,,,,,0,00,,,M,0.0,M,,0000*48
$GPGSA,A,1,,,,,,,,,,,,,,,*1E
$GPRMC,,V,,,,,,,,,,N*53
$GPGGA,,,,,,0,00,,,M,0.0,M,,0000*48
$GPGSA,A,1,,,,,,,,,,,,,,,*1E
$GPRMC,,V,,,,,,,,,,N*53
$GPGGA,,,,,,0,00,,,M,0.0,M,,0000*48
$GPGSA,A,1,,,,,,,,,,,,,,,*1E
$GPRMC,,V,,,,,,,,,,N*53
$GPGGA,225258.910,,,,,0,00,,,M,0.0,M,,0000*54
$GPGSA,A,1,,,,,,,,,,,,,,,*1E
$GPRMC,225258.910,V,,,,,,,161111,,,N*48
$GPGGA,225259.910,,,,,0,00,,,M,0.0,M,,0000*55
$GPGSA,A,1,,,,,,,,,,,,,,,*1E
$GPGSV,3,1,12,02,00,000,27,06,00,000,31,09,00,000,27,12,00,000,34*73
$GPGSV,3,2,12,01,00,000,,03,00,000,,04,00,000,,05,00,000,*78
$GPGSV,3,3,12,07,00,000,,08,00,000,,10,00,000,,11,00,000,*74
$GPRMC,225259.910,V,,,,,,,161111,,,N*49
$GPGGA,225300.910,,,,,0,00,,,M,0.0,M,,0000*58
$GPGSA,A,1,,,,,,,,,,,,,,,*1E
$GPRMC,225300.910,V,,,,,,,161111,,,N*44
$GPGGA,225301.910,,,,,0,00,,,M,0.0,M,,0000*59
$GPGSA,A,1,,,,,,,,,,,,,,,*1E
$GPRMC,225301.910,V,,,,,,,161111,,,N*45
$GPGGA,225302.910,,,,,0,00,,,M,0.0,M,,0000*5A
$GPGSA,A,1,,,,,,,,,,,,,,,*1E
$GPRMC,225302.910,V,,,,,,,161111,,,N*46
$GPGGA,225303.910,,,,,0,00,,,M,0.0,M,,0000*5B
$GPGSA,A,1,,,,,,,,,,,,,,,*1E
$GPRMC,225303.910,V,,,,,,,161111,,,N*47
$GPGGA,225304.910,,,,,0,00,,,M,0.0,M,,0000*5C
$GPGSA,A,1,,,,,,,,,,,,,,,*1E
$GPGSV,3,1,12,02,00,000,27,06,00,000,31,09,00,000,27,12,00,000,34*73
$GPGSV,3,2,12,01,00,000,,03,00,000,,04,00,000,,05,00,000,*78
$GPGSV,3,3,12,07,00,000,,08,00,000,,10,00,000,,11,00,000,*74
$GPRMC,225304.910,V,,,,,,,161111,,,N*40
$GPGGA,225305.910,,,,,0,00,,,M,0.0,M,,0000*5D
$GPGSA,A,1,,,,,,,,,,,,,,,*1E
$GPRMC,225305.910,V,,,,,,,161111,,,N*41
$GPGGA,225306.910,,,,,0,00,,,M,0.0,M,,0000*5E
$GPGSA,A,1,,,,,,,,,,,,,,,*1E
$GPRMC,225306.910,V,,,,,,,161111,,,N*42
$GPGGA,225307.910,,,,,0,00,,,M,0.0,M,,0000*5F
$GPGSA,A,1,,,,,,,,,,,,,,,*1E
$GPRMC,225307.910,V,,,,,,,161111,,,N*43
$GPGGA,225308.910,,,,,0,00,,,M,0.0,M,,0000*50
$GPGSA,A,1,,,,,,,,,,,,,,,*1E
$GPRMC,225308.910,V,,,,,,,161111,,,N*4C
$GPGGA,225309.910,,,,,0,00,,,M,0.0,M,,0000*51
$GPGSA,A,1,,,,,,,,,,,,,,,*1E
$GPGSV,3,1,12,02,00,000,27,06,00,000,31,09,00,000,24,12,00,000,33*77
$GPGSV,3,2,12,01,00,000,,03,00,000,,04,00,000,,05,00,000,*78
$GPGSV,3,3,12,07,00,000,,08,00,000,,10,00,000,,11,00,000,*74
$GPRMC,225309.910,V,,,,,,,161111,,,N*4D
$GPGGA,225310.910,,,,,0,00,,,M,0.0,M,,0000*59
$GPGSA,A,1,,,,,,,,,,,,,,,*1E
$GPRMC,225310.910,V,,,,,,,161111,,,N*45
$GPGGA,225311.920,,,,,0,00,,,M,0.0,M,,0000*5B
$GPGSA,A,1,,,,,,,,,,,,,,,*1E
$GPRMC,225311.920,V,,,,,,,161111,,,N*47
$GPGGA,225312.934,,,,,0,00,,,M,0.0,M,,0000*5D
$GPGSA,A,1,,,,,,,,,,,,,,,*1E
$GPRMC,225312.934,V,,,,,,,161111,,,N*41
$GPGGA,225313.920,,,,,0,00,,,M,0.0,M,,0000*59
$GPGSA,A,1,,,,,,,,,,,,,,,*1E
$GPRMC,225313.920,V,,,,,,,161111,,,N*45
$GPGGA,225314.920,,,,,0,00,,,M,0.0,M,,0000*5E
$GPGSA,A,1,,,,,,,,,,,,,,,*1E
$GPGSV,3,1,12,01,00,000,,02,00,000,,03,00,000,,04,00,000,*7C
$GPGSV,3,2,12,05,00,000,,06,00,000,,07,00,000,,08,00,000,*77
$GPGSV,3,3,12,09,00,000,,10,00,000,,11,00,000,,12,00,000,*71
$GPRMC,225314.920,V,,,,,,,161111,,,N*42
$GPGGA,225315.910,,,,,0,00,,,M,0.0,M,,0000*5C
$GPGSA,A,1,,,,,,,,,,,,,,,*1E
$GPRMC,225315.910,V,,,,,,,161111,,,N*40
